FID,OBJECTID,LabNumber,PDRNumber,Collected_,CtValue,Results,Count_Adul,Count_Nymp,Insect_Sta,Insect_No,Lab_Set,Cycle_No,Month_,Year_,Program_ID,Activity_I,Situation_,Address,City,State,Zip,County,Grid_Numbe,Longitude,Latitude,X_ref,Y_ref
0,9090,17.018-247,AM0P06712420,2/24/2017,39.49,NEG,2,0,A,2,AZ,0,2,2017,HLB,12,63,421 E 2nd Ave,La Habra,CA,90631,Orange, ,-117.94123,33.92997,190353,-451868
1,9091,17.018-248,AM0P06712422,2/24/2017,37.81,NEG,1,0,A,1,AZ,0,2,2017,HLB,12,63,319 Bright St,La Habra,CA,90631,Orange, ,-117.94077,33.92911,190397,-451962
2,9101,17.018-257,AM0P06712459,2/24/2017,37.97,NEG,2,0,A,2,AZ,0,2,2017,HLB,12,63,2227 E Olmstead Way,Anaheim,CA,92806,Orange, ,-117.88548,33.82961,195755,-462882
1473,238056,E17-00563,CE2P06680394,12/28/2016,39.71,NEG,1,0,A,1,CDFA,0,12,2016,HLB,12,63,12221 186th St,Artesia,CA,90701,Los Angeles, ,-118.07158,33.862518,178455,-459601
1497,241155,E17-03662,RS0P06675213,1/24/2017,39.71,NEG,1,0,A,1,CDFA,0,1,2017,HLB,12,63,10108 E Klingerman St,South El Monte,CA,91733,Los Angeles, ,-118.048709,34.055453,180130,-438162
5,10606,17.03-103,SM0P06164301,12/20/2016,37.37,Fail,1,0,A,1,AZ,0,12,2016,HLB,12,63,3124 Brookside Ln,Encinitas,CA,92024,San Diego, ,-117.21791,33.05403,260063,-547221
6,10787,17.03-194,SDAP06490096,12/29/2016,38.8,NEG,1,0,A,1,AZ,0,12,2016,HLB,12,63,8814 Pestwick Way,Santee,CA,92017,San Diego, ,-117.00971,32.84857,280236,-569378
7,13274,17.060-198,RS0P06738761,6/7/2017,39.37,NEG,3,0,A,3,AZ, ,6,2017,HLB,12,63,3746 Lofton Pl,Riverside,CA,92501,Riverside, ,-117.363031,34.001575,243580,-442605
1491,240964,E17-03471,CE2P06694426,1/23/2017,39.6,NEG,4,0,A,4,CDFA,0,1,2017,HLB,12,63,8716 Grand Ave,Rosemead,CA,91770,Los Angeles, ,-118.07916,34.091773,177238,-434191
9,13278,17.060-200,RS0P06738759,6/7/2017,38.51,NEG,0,40,N,40,AZ, ,6,2017,HLB,12,63,3600 Geary Pl,Riverside,CA,92501,Riverside, ,-117.359527,34.003499,243897,-442382
10,13290,17.060-211,RS0P06738394,6/7/2017,39.37,NEG,0,20,N,20,AZ, ,6,2017,HLB,12,63,3263 Amhurst Dr,Riverside,CA,92503,Riverside, ,-117.473896,33.89258,233663,-454968
11,13304,17.060-224,RS0P06737385,6/7/2017,38.85,NEG,5,0,A,5,AZ, ,6,2017,HLB,12,63,11966 Knoefler Dr,Riverside,CA,92505,Riverside, ,-117.501809,33.906473,231041,-453497
12,13520,17.062-46,SM0P06788228,6/12/2017,38.47,NEG,17,0,A,17,AZ, ,6,2017,HLB,12,63,140 W 3rd Ave,Escondido,CA,92025,San Diego, ,-117.080788,33.11958,272653,-539576
13,16272,17.094-70,SDAP06440725,10/3/2017,39.27,NEG,0,4,N,4,AZ, ,10,2017,HLB,12,63,13561 Orchard Gate Rd,Poway,CA,92064,San Diego, ,-117.04223,33.00327,276655,-552345
14,18878,A16.017-138,SM0P06615897,9/27/2016,39.08,NEG,0,0,N,50,AZ,1,9,2016,HLB,12,63,542 Ross Drive,Escondido,CA,92029,San Diego, ,-117.12177,33.12463,268810,-539134
15,18898,A16.017-156,SM0P06615742,9/28/2016,38.45,NEG,0,0,A,1,AZ,1,9,2016,HLB,12,63,890 Day Lilies Ct.,San Marcos,CA,92078,San Diego, ,-117.13812,33.13198,267258,-538366
16,18903,A16.017-160,SM0P06616571,9/28/2016,38.24,NEG,0,0,A,4,AZ,1,9,2016,HLB,12,63,832 Arthur Avenue,Oceanside,CA,92057,San Diego, ,-117.29011,33.26264,252655,-524310
17,19003,A16.018-15,SM0P06653762,9/29/2016,39.3,Fail,0,0,N,15,AZ,1,9,2016,HLB,12,63,4550 BIG SUR ST.,OCEANSIDE,CA,92057,San Diego, ,-117.31725,33.25453,250151,-525281
1539,244631,E17-07138,RV0P06638699,3/14/2017,39.59,NEG,5,0,A,5,CDFA,0,3,2017,ACP,12,30,"0.26 mi. SE of E La Falda Way., 1.11 mi. S of E Te",Fillmore,CA, ,Ventura,KS530,-118.731096,34.39408,116639,-401665
19,24583,A16.06-32,AM0P06561194,9/6/2016,37.32,NEG,0,0,A,3,AZ,1,9,2016,HLB,12,63,11312 Gardenaire Ln,Garden Grove,CA,92841,Orange, ,-117.96255,33.79848,188695,-466490
20,24782,A16.08-121,SM0P06616184,8/1/2016,38.18,NEG,0,0,A,1,AZ,1,8,2016,HLB,92,63,205 East California Avenue,Vista,CA,92084,San Diego, ,-117.24332,33.20739,257194,-530305
21,24809,A16.08-146,SM0P06479050,8/11/2016,39.97,NEG,0,0,A,12,AZ,1,8,2016,HLB,12,63,686 Hoover Street,Escondido,CA,92027,San Diego, ,-117.0678,33.13562,273811,-537763
22,24810,A16.08-147,SM0P06479051,8/11/2016,37.84,NEG,0,0,N,50,AZ,1,8,2016,HLB,12,63,743 Hoover Street,Escondido,CA,92027,San Diego, ,-117.06888,33.13667,273706,-537649
23,24811,A16.08-148,SM0P06479051,8/11/2016,39.06,NEG,0,0,A,19,AZ,1,8,2016,HLB,12,63,743 Hoover Street,Escondido,CA,92027,San Diego, ,-117.06888,33.13667,273706,-537649
24,24812,A16.08-149,SM0P06616809,8/11/2016,36.34,NEG,0,0,A,2,AZ,1,8,2016,HLB,12,63,675 Hoover Street,Escondido,CA,92027,San Diego, ,-117.06786,33.13526,273806,-537803
25,24867,A16.08-62,SM0P06479121,7/26/2016,39.88,NEG,0,0,N,10,AZ,1,7,2016,HLB,12,63,1519 Halter Pl,San Marcos,CA,92069,San Diego, ,-117.19075,33.15309,262276,-536175
160,59153,C14-11380,VN0P06280945,5/5/2014,34.99238586,Unknown,4,0,A,4,CRB,1,5,2014,HLB,12,63,3027 Honolulu Ave,Glendale,CA,91214,Los Angeles,LU542,-118.24503,34.21479,161682,-420843
145,45182,C12300-1,RIAP06069792,8/5/2013,35,Unknown,3,0,A,3,CRB,0,8,2013,ACP, , ,128 MT Vernon Ave,Riverside,CA,92507,Riverside,NM554,-117.313647,34.01759,248090,-440701
146,45183,C12300-2,RIAP06069792,8/5/2013,35,Unknown,1,0,A,1,CRB,0,8,2013,ACP, , ,128 MT Vernon Ave,Riverside,CA,92507,Riverside,NM554,-117.313647,34.01759,248090,-440701
263,65813,C14-17137,SDAP06284922,6/26/2014,35.08245087,Unknown,0,2,N,2,CRB,1,6,2014,HLB,12,63,3415 Hollencrest Rd.,San Marcos,CA,92069,San Diego,OE614,-117.19993,33.15523,261412,-535964
268,65821,C14-17143,SDAP06284928,6/26/2014,35.17811584,Unknown,10,0,A,10,CRB,1,6,2014,HLB,12,63,215 Hollenbeck Rd.,San Marcos,CA,92069,San Diego,OE614,-117.19932,33.154419,261472,-536052
119,43733,C11127-1,CE2P06209253,7/29/2013,36,Unknown,5,0,A,5,CRB,0,7,2013,ACP, , ,7963 7th St,Downey,CA,90241,Los Angeles,MB560,-118.13463,33.948617,172433,-450170
120,43734,C11127-2,CE2P06209253,7/29/2013,36,Unknown,1,0,A,1,CRB,0,7,2013,ACP, , ,7963 7th St,Downey,CA,90241,Los Angeles,MB560,-118.13463,33.948617,172433,-450170
267,65820,C14-17142,SDAP06284927,6/26/2014,36.35228348,Unknown,2,0,A,2,CRB,1,6,2014,HLB,12,63,226 Hollenbeck Rd.,San Marcos,CA,92069,San Diego,OE614,-117.19942,33.15352,261465,-536152
50,33009,C03175-2,CE2P06183830,4/29/2013,37,Unknown,5,0,A,5,CRB,0,4,2013,ACP, , ,11844 209th St,Lakewood,CA,90715,Los Angeles,ME568,-118.080299,33.839683,177699,-462149
64,42647,C10310-1,RS0P06203676,7/24/2013,37,Unknown,0,25,N,25,CRB,0,7,2013,ACP, , ,36120 Jana Ln,Wildomar,CA,92595,Riverside,OC583,-117.225826,33.596131,257565,-487186
102,43248,C10751,RS0P06203406,7/30/2013,37,Unknown,3,0,A,3,CRB,0,7,2013,ACP, , ,7523 Lippizan Dr,Riverside,CA,92509,Riverside,NO557,-117.446447,33.989254,235913,-444182
246,65666,C14-16999,SDAP06286583,6/26/2014,37.0232811,Unknown,4,0,A,4,CRB,1,6,2014,HLB,12,63,9465 Emerald Grove Ave,Lakeside,CA,92040,San Diego, ,-116.93795,32.84886,286958,-569131
279,70667,C14-21181,RSAP06295937,9/25/2014,37.04683304,Unknown,0,2,N,2,CRB,1,9,2014,HLB,12,63,3630 Vista Campana S  Sp.#41,Oceanside,CA,92057,San Diego,NX610,-117.329772,33.215154,249106,-529676
261,65760,C14-17087,RS0P06294950,7/9/2014,37.11633301,Unknown,2,0,A,2,CRB,1,7,2014,HLB,12,63,24161 Via Luisa,Mission Viejo,CA,92691,Orange,ND583,-117.66138,33.611913,217093,-486527
165,62973,C14-14672-2,RS0P06274510,6/11/2014,37.14090347,Unknown,0,20,N,20,CRB,1,6,2014,HLB,12,63,2148 S Van Ness Ave,Santa Ana,CA,92707,Orange,MQ575,-117.873002,33.718101,197187,-475219
205,65350,C14-16717-1,SDAP06286954,6/24/2014,37.41843033,Unknown,0,25,N,25,CRB,1,6,2014,HLB,12,63,14039 High Sierra Rd.,Poway,CA,92064,San Diego, ,-117.02476,33.01404,278251,-551101
257,65755,C14-17082,RS0P06294685,7/9/2014,37.4289093,Unknown,1,0,A,1,CRB,1,7,2014,HLB,12,63,829 Cortez St,Costa Mesa,CA,92626,Orange,MP579,-117.89211,33.672773,195528,-480283
206,65359,C14-16722,SDAP06287149,6/24/2014,37.46771622,Unknown,3,0,A,3,CRB,1,6,2014,HLB,12,63,1042 Old Mountain View Rd.,El Cajon,CA,92021,San Diego, ,-116.84695,32.82608,295567,-571373
223,65526,C14-16873,RS0P06294518,7/8/2014,37.74523163,Unknown,4,0,A,4,CRB,1,7,2014,HLB,12,63,24291 Spartan St,Mission Viejo,CA,92691,Orange,NB583,-117.683799,33.609339,215019,-486864
260,65758,C14-17085,RS0P06294691,7/9/2014,37.77599716,Unknown,0,10,N,10,CRB,1,7,2014,HLB,12,63,200 Lillian Pl,Costa Mesa,CA,92627,Orange,MP580,-117.892943,33.660954,195480,-481595
227,65530,C14-16877,RS0P06294667,7/1/2014,37.78739929,Unknown,3,0,A,3,CRB,1,7,2014,HLB,12,63,11571 Vista Mar,Santa Ana,CA,92705,Orange,MW573,-117.78092,33.755502,205625,-470877
152,54553,C14-06982,AM0P06255210,3/3/2014,37.83742142,Unknown,0,9,N,9,CRB,1,3,2014,HLB,12,63,1407 W.Colonial Ave.,Anaheim,CA, ,Orange,MN569,-117.930991,33.817289,191572,-464341
237,65624,C14-16958,SD1P06224626,6/30/2014,37.87846375,Unknown,2,0,A,2,CRB,1,6,2014,HLB,12,63,1140 Range View Rd,Vista,CA,92084,San Diego, ,-117.21114,33.18895,260256,-532259
213,65438,C14-16793,RS0P06274696,7/7/2014,37.91463089,Unknown,7,0,A,7,CRB,1,7,2014,HLB,12,63,5200 Irvine Blvd SP#424,Irvine,CA,92620,Orange,MX576,-117.752196,33.708146,208411,-476064
167,62985,C14-14684-1,RS0P06294016,6/12/2014,37.97644043,Unknown,0,25,N,25,CRB,1,6,2014,HLB,12,63,13821 Ward St,Garden Grove,CA,92843,Orange,MM573,-117.945762,33.76196,190337,-470505
234,65621,C14-16955,SD1P06224616,6/26/2014,37.9872551,Unknown,4,0,A,4,CRB,1,6,2014,HLB,12,63,952 Berkeley Way,Vista,CA,92084,San Diego, ,-117.21832,33.19249,259574,-531887
26,25498,C00067-2,RIAP06069445,3/4/2013,38,Unknown,4,0,A,4,CRB,0,3,2013,ACP, , ,86045 Avenue 52,Coachella,CA,92236,Riverside,QL576,-116.163957,33.671264,355770,-475426
32,30180,C01980-2,CO2P06117877,4/16/2013,38,Unknown,0,5,N,5,CRB,0,4,2013,ACP, , ,5908 Sunfield Ave,Lakewood,CA,90712,Los Angeles,4811,-118.134826,33.862392,172603,-459732
33,30407,C02072-12,RSAP06159648,4/15/2013,38,Unknown,5,0,A,5,CRB,0,4,2013,ACP, , ,10191 Cypress Ave,Riverside,CA,92503,Riverside,NN560,-117.476362,33.94294,233287,-449391
41,30553,C02152-1,COAP06097090,4/17/2013,38,Unknown,0,5,N,5,CRB,0,4,2013,ACP, , ,22330 Joliet Ave,Hawaiian Gardens,CA,90716,Los Angeles,5109,-118.074336,33.82512,178284,-463753
43,30587,C02160-2,CO2P06117883,4/18/2013,38,Unknown,0,3,N,3,CRB,0,4,2013,ACP, , ,5949 Lakewood Blvd,Lakewood,CA,90712,Los Angeles,4711,-118.142793,33.863241,171864,-459652
52,33783,C03769,RV0P06163163,5/6/2013,38,Unknown,16,0,A,16,CRB,0,5,2013,ACP, , ,"S of E 6th Ave., 0.02 mi E of Opal Ave.",Redlands,CA, ,San Barnardino,OG552,-117.134141,34.04467,264572,-437213
55,36478,C05963,RSAP06159405,6/12/2013,38,Unknown,0,12,N,12,CRB,0,6,2013,ACP, , ,1224 Palos Verde Dr,Corona,CA,92880,Riverside,NH563,-117.581091,33.897889,223735,-454638
60,39607,C07984-6,RS0P06192026,7/1/2013,38,Unknown,0,25,N,25,CRB,0,7,2013,ACP, , ,30710 Plumas St,Lake Elsinore,CA,92530,Riverside,NS578,-117.39537,33.675222,241587,-478867
63,42586,C10263-2,RS0P06202642,7/24/2013,38,Unknown,0,25,N,25,CRB,0,7,2013,ACP, , ,1931 Stonewood Cir,Corona,CA,92881,Riverside,NJ566,-117.546076,33.855911,227094,-459209
65,42672,C10328-1,RSAP06205430,7/24/2013,38,Unknown,0,25,N,25,CRB,0,7,2013,ACP, , ,27945 Canyon Hills Way,Murrieta,CA,92563,Riverside,OF584,-117.172142,33.586723,262579,-488082
73,42825,C10434-2,RS0P06173259,7/25/2013,38,Unknown,0,25,N,25,CRB,0,7,2013,ACP, , ,23697 Hayes Ave,Murrieta,CA,92562,Riverside,OB585,-117.238857,33.568744,256444,-490257
75,42940,C10511,RSAP06205493,7/25/2013,38,Unknown,19,0,A,19,CRB,0,7,2013,ACP, , ,13381 Dilbeck Dr,Moreno Valley,CA,92553,Riverside,OB561,-117.238364,33.926259,255335,-450627
77,42959,C10521,RSAP06205516,7/25/2013,38,Unknown,14,0,A,14,CRB,0,7,2013,ACP, , ,28819 Brahms Ln,Moreno Valley,CA,92555,Riverside,OF560,-117.15993,33.929343,262575,-450071
91,43123,C10650,CE2P06209427,7/31/2013,38,Unknown,2,0,A,2,CRB,0,7,2013,ACP, , ,308 Briar Creek Rd,Diamond Bar,CA,91765,Los Angeles,MU554,-117.796969,34.030292,203430,-440443
109,43298,C10788-2,RSAP06205301,7/30/2013,38,Unknown,0,11,N,11,CRB,0,7,2013,ACP, , ,23630 Airosa Pl,Moreno Valley,CA,92557,Riverside,OA558,-117.25081,33.965743,254058,-446283
115,43439,C10895,CO2P06090897,7/29/2013,38,Unknown,7,0,A,7,CRB,0,7,2013,ACP, , ,3034 Sastre Ave,El Monte,CA,91733,Los Angeles,MD561,-118.054282,34.063771,179597,-437250
118,43725,C11119,CE2P06209246,7/30/2013,38,Unknown,4,0,A,4,CRB,0,7,2013,ACP, , ,2639 Greenborough Pl,West Covina,CA,91792,Los Angeles,MO555,-117.907082,34.024821,193277,-441280
121,43736,C11128-2,CE2P06209290,7/29/2013,38,Unknown,0,25,N,25,CRB,0,7,2013,ACP, , ,444 S Sandalwood Ave,LA Puente,CA,91744,Los Angeles,MN556,-117.918758,34.012184,192230,-442705
125,43904,C11258,RV0P06163345,7/30/2013,38,Unknown,8,0,A,8,CRB,0,7,2013,ACP, , ,"N of El Sobrante Rd., 0.23 mi E La Sierra Ave.",Riverside,CA, ,Riverside,NP566,-117.449471,33.858525,236024,-458684
256,65754,C14-17081,RS0P06294684,7/9/2014,38.02206421,Unknown,4,0,A,4,CRB,1,7,2014,HLB,12,63,975 Presidio Dr,Costa Mesa,CA,92626,Orange,MP579,-117.89849,33.671753,194939,-480410
197,65303,C14-16672,CE2P06293690,7/1/2014,38.02478027,Unknown,1,0,A,1,CRB,1,7,2014,HLB,12,63,824 S Laurinda Ln,Orange,CA,92869,Orange, ,-117.822323,33.77453,201741,-468856
245,65665,C14-16998,SDAP06286582,6/26/2014,38.02928162,Unknown,4,0,A,4,CRB,1,6,2014,HLB,12,63,9478 Emerald Grove Ave,Lakeside,CA,92040,San Diego, ,-116.93793,32.84941,286958,-569070
262,65761,C14-17088,RS0P06294951,7/9/2014,38.0411911,Unknown,10,0,A,10,CRB,1,7,2014,HLB,12,63,24232 Puerta de Luz,Mission Viejo,CA,92691,Orange,ND583,-117.661068,33.6109,217124,-486639
280,71223,C14-21626-1,SDAP06313335,10/7/2014,38.0536499,Unknown,0,22,N,22,CRB,1,10,2014,HLB,12,63,590 Pointing Rock Dr,Borrego Springs,CA,92004,San Diego, ,-116.38191,33.28756,337189,-518725
170,63027,C14-14718-1,RV0P06252799,6/17/2014,38.13261414,Unknown,0,25,N,25,CRB, ,6,2014,ACP,12,30,"0.07 mi. N of State Hwy 76, 0.15 mi W of Tem",Pala,CA, ,San Diego,OK599,-117.09285,33.3672616,270685,-512176
216,65449,C14-16803,VN0P06281327,7/8/2014,38.14974976,Unknown,2,0,A,2,CRB,1,7,2014,HLB,12,63,15232 Champagne,Irvine,CA,92601,Orange,MW578,-117.78329,33.68785,205581,-478382
239,65626,C14-16960,RV0P06252872,7/8/2014,38.16584396,Unknown,2,0,A,2,CRB, ,7,2014,ACP,12,30,"0.11 mi. E of Magee Rd., 1.50 mi. N of 76 Hwy.",Pala,CA, ,San Diego,ON598,-117.042975,33.3819934,275277,-510400
242,65662,C14-16995,SDAP06285946,6/26/2014,38.20341873,Unknown,2,0,A,2,CRB,1,6,2014,HLB,12,63,1144 Caminito Connie,Ramona,CA,92065,San Diego,OY622,-116.86314,33.02893,293306,-548965
259,65757,C14-17084,RS0P06294690,7/9/2014,38.23521042,Unknown,1,0,A,1,CRB,1,7,2014,HLB,12,63,234 Lillian Pl,Costa Mesa,CA,92627,Orange,MP580,-117.891962,33.660254,195572,-481671
174,63060,C14-14745,SDAP06285334,6/16/2014,38.24599457,Unknown,3,0,A,3,CRB,1,6,2014,HLB,12,63,430 Rancho Vista Rd,Vista, ,92083,San Diego,OC611,-117.24316,33.1961,257245,-531555
209,65362,C14-16724,SDAP06287150,6/24/2014,38.25003815,Unknown,12,0,A,12,CRB,1,6,2014,HLB,12,63,11914 Costalot Ln,Lakeside,CA,92040,San Diego, ,-116.93409,32.89577,287152,-563926
230,65576,C14-16911-2,RS0P06294947,7/8/2014,38.26918793,Unknown,0,20,N,20,CRB,1,7,2014,HLB,12,63,27092 Calle del Cid,Mission Viejo,CA,92691,Orange,ND586,-117.660858,33.569239,217258,-491256
203,65341,C14-16709,SDAP06286574,6/30/2014,38.29927826,Unknown,3,0,A,3,CRB,1,6,2014,HLB,12,63,12034 Lemon Crest Dr,Lakeside,CA,92040,San Diego, ,-116.93204,32.84957,287509,-569034
211,65364,C14-16726,SDAP06287159,6/30/2014,38.30896759,Unknown,5,0,A,5,CRB,1,6,2014,HLB,12,63,11751 Waterhill Rd,Lakeside,CA,92040,San Diego, ,-116.93909,32.85124,286843,-568871
277,69985,C14-20663,RV0P06252154,9/22/2014,38.34430313,Unknown,3,0,A,3,CRB, ,9,2014,ACP,12,30," 0.34 mi. E of Hwy 76, 0.51 mi S of Cole Grade Rd.",Pauma Valley,CA, ,San Diego,OQ603,-116.9928118,33.31015,280198,-518212
264,65814,C14-17138,SDAP06284923,6/26/2014,38.39006424,Unknown,1,0,A,1,CRB,1,6,2014,HLB,12,63,3421 Hollencrest Rd.,San Marcos,CA,92069,San Diego,OE614,-117.19959,33.15514,261444,-535973
236,65623,C14-16957,SD1P06224624,6/30/2014,38.41766357,Unknown,2,0,A,2,CRB,1,6,2014,HLB,12,63,746 Sunrise Dr.,Vista,CA,92084,San Diego, ,-117.20933,33.19538,260404,-531542
207,65360,C14-16723-1,SDAP06287150,6/24/2014,38.42472458,Unknown,0,20,N,20,CRB,1,6,2014,HLB,12,63,11914 Costalot Ln,Lakeside,CA,92040,San Diego, ,-116.93409,32.89577,287152,-563926
224,65527,C14-16874,RS0P06294519,7/8/2014,38.44992828,Unknown,2,0,A,2,CRB,1,7,2014,HLB,12,63,24361 Regina St,Mission Viejo,CA,92691,Orange,NC583,-117.681439,33.608443,215240,-486958
248,65669,C14-17001,SDAP06286585,6/25/2014,38.45414734,Unknown,3,0,A,3,CRB,1,6,2014,HLB,12,63,11603 Sunset Knolls Rd.,Lakeside,CA,92040,San Diego, ,-116.94434,32.85103,286352,-568910
244,65664,C14-16997,SDAP06286581,6/26/2014,38.45714188,Unknown,6,0,A,6,CRB,1,6,2014,HLB,12,63,9459 Riverview Ave,Lakeside,CA,92040,San Diego, ,-116.93485,32.84842,287250,-569170
201,65333,C14-16701,SDAP06285476,6/23/2014,38.46256638,Unknown,3,0,A,3,CRB,1,6,2014,HLB,12,63,2410 Alta Vista Dr,Vista,CA,92084,San Diego, ,-117.22893,33.19569,258574,-531562
215,65441,C14-16796,VN0P06279424,7/7/2014,38.52165985,Unknown,1,0,A,1,CRB,1,7,2014,HLB,12,63,4561 Pinyon Tree Ln,Irvine,CA,92614,Orange,MU579,-117.77557,33.65995,206369,-481458
178,63805,C14-15357,RS0P06294114,6/16/2014,38.53670502,Unknown,0,1,N,1,CRB,1,6,2014,HLB,12,63,507 S Euclid St. #158,Santa Ana,CA,92704,Orange,MN574,-117.937396,33.741491,191162,-472758
202,65334,C14-16702,SDAP06285477,6/23/2014,38.56404114,Unknown,0,20,N,20,CRB,1,6,2014,HLB,12,63,2290 Alta Vista Dr,Vista,CA,92084,San Diego, ,-117.22646,33.19389,258811,-531754
183,63957,C14-15490,CE2P06293749,6/26/2014,38.57477188,Unknown,4,0,A,4,CRB,1,6,2014,HLB,12,63,8241 Dancy Cir,Huntington Beach,CA,92646,Orange,MK557,-117.98438,33.696568,186914,-477832
225,65528,C14-16875,RS0P06294565,7/1/2014,38.60758209,Unknown,6,0,A,6,CRB,1,7,2014,HLB,12,63,1711 Sirrine Dr,Santa Ana,CA,92705,Orange,MW572,-117.768335,33.776248,206737,-468550
258,65756,C14-17083,RS0P06294996,7/9/2014,38.63772583,Unknown,1,0,A,1,CRB,1,7,2014,HLB,42,63,2687 Club Mesa Pl,Costa Mesa,CA,92627,Orange,MQ580,-117.890141,33.662161,195737,-481456
208,65361,C14-16723-2,SDAP06287150,6/24/2014,38.65997696,Unknown,0,25,N,25,CRB,1,6,2014,HLB,12,63,11914 Costalot Ln,Lakeside,CA,92040,San Diego, ,-116.93409,32.89577,287152,-563926
266,65817,C14-17141-1,SDAP06284926,6/26/2014,38.68469238,Unknown,0,25,N,25,CRB,1,6,2014,HLB,12,63,3510 Badillo Rd.,San Marcos,CA,92069,San Diego,OE614,-117.19909,33.15344,261496,-536160
240,65628,C14-16962,RV0P06252873,7/8/2014,38.70404053,Unknown,0,21,N,21,CRB, ,7,2014,ACP,12,30,"0.18 mi. E of Magee Rd., 1.61 mi. N of 76 Hwy.",Pala,CA, ,San Diego,ON598,-117.0418668,33.3823068,275379,-510362
210,65363,C14-16725,SDAP06287159,6/30/2014,38.71389008,Unknown,0,18,N,18,CRB,1,6,2014,HLB,12,63,11751 Waterhill Rd,Lakeside,CA,92040,San Diego, ,-116.93909,32.85124,286843,-568871
193,64362,C14-15853-2,RS0P06294330,6/24/2014,38.72767258,Unknown,25,0,A,25,CRB,1,6,2014,HLB,12,63,405 E. El Camino Real,Tustin,CA,92780,Orange,MT574,-117.823647,33.741711,201702,-472498
226,65529,C14-16876,RS0P06294566,7/1/2014,38.76440048,Unknown,6,0,A,6,CRB,1,7,2014,HLB,12,63,10021 Highcliff Dr,Santa Ana,CA,92705,Orange,MW572,-117.774012,33.77983,206202,-468165
269,65828,C14-17150,SDAP06285055,6/30/2014,38.80581665,Unknown,8,0,A,8,CRB,1,6,2014,HLB,12,63,1805 Montgomery Dr,Vista,CA,92084,San Diego, ,-117.212546,33.178324,260159,-533440
243,65663,C14-16996,SDAP06285947,6/26/2014,38.82052231,Unknown,11,0,A,11,CRB,1,6,2014,HLB,12,63,1223 10th St.,Ramona,CA,92065,San Diego,OY622,-116.86108,33.03221,293487,-548596
238,65625,C14-16959,SD1P06224627,6/30/2014,38.83034897,Unknown,0,12,N,12,CRB,1,6,2014,HLB,12,63,1155 Range View Rd,Vista,CA,92084,San Diego, ,-117.21165,33.1887,260209,-532289
158,58718,C14-10986,VN0P06276215,4/29/2014,38.83662796,Unknown,22,0,A,22,CRB,1,4,2014,HLB,12,63,2268 Colmena St,La Crescenta Flintridge,CA,91011,Los Angeles,LV541,-118.22729,34.22733,163290,-419421
247,65668,C14-17000,SDAP06286584,6/25/2014,38.84785461,Unknown,23,0,A,23,CRB,1,6,2014,HLB,12,63,9629 Marilla Dr.,Lakeside,CA,92040,San Diego, ,-116.94064,32.85136,286697,-568862
251,65696,C14-17027,SDAP06287247,6/25/2014,38.8961525,Unknown,1,0,A,1,CRB,1,6,2014,HLB,12,63,9517 Marilla Dr.,Lakeside,CA,92040,San Diego, ,-116.94109,32.84872,286664,-569156
169,63025,C14-14716,RV0P06252798,6/17/2014,38.90626526,Unknown,1,0,A,1,CRB, ,6,2014,ACP,12,30,"0.07 mi. N of State Hwy 76, 0.31 mi W of T",Pala,CA, ,San Diego,OK599,-117.09561,33.365585,270434,-512369
274,66356,C14-17641,RS0P06295184,7/14/2014,38.9266777,Unknown,2,0,A,2,CRB,1,7,2014,HLB,12,63,2233 Anaheim Ave,Costa Mesa,CA,92627,Orange,MO580,-117.923742,33.655461,192636,-482267
187,64059,C14-15581,SDAP06287030,6/25/2014,38.95335388,Unknown,0,15,N,15,CRB,1,6,2014,HLB,12,63,462 Smilax Rd,Vista,CA,92078,San Diego,OE614,-117.20791,33.15569,260666,-535935
27,25811,C00167-1,RI0P06057848,3/12/2013,39,Unknown,5,0,A,5,CRB,0,3,2013,ACP, , ,1520 Fairway Oaks Ave,Banning,CA,92220,Riverside,OS561,-116.933667,33.909879,283556,-451577
28,25846,C00175-3,RSAP06159541,3/12/2013,39,Unknown,0,3,N,3,CRB,0,3,2013,ACP, , ,3152 Sonrisa Dr,Corona,CA,92881,Riverside,NI567,-117.562365,33.840179,225631,-460992
29,25868,C00187-1,RI0P06148795,3/13/2013,39,Unknown,0,4,N,4,CRB,0,3,2013,ACP, , ,1646 Palmyrita Ave,Riverside,CA,92507,Riverside,NU555,-117.34719,34.004783,245032,-442208
30,26130,C00324-1,RS0P06173580,3/14/2013,39,Unknown,0,5,N,5,CRB,0,3,2013,ACP, , ,3269 Dapplegray Ln,Norco,CA,92860,Riverside,NK561,-117.533998,33.929337,227999,-451039
31,29789,C01795-2,CE2P06182998,4/11/2013,39,Unknown,5,0,A,5,CRB,0,4,2013,ACP, , ,11859 Floral Dr,Whittier,CA,90601,Los Angeles,5320,-118.049707,33.991803,180183,-445223
34,30444,C02088-1,RSAP06160561,4/16/2013,39,Unknown,5,0,A,5,CRB,0,4,2013,ACP, , ,4265 Kathy Ave,Riverside,CA,92509,Riverside,NO555,-117.447622,34.010661,235741,-441811
35,30466,C02101,RS0P06173174,4/16/2013,39,Unknown,2,0,A,2,CRB,0,4,2013,ACP, , ,11985 Riverside St.,Lake Elsinore,CA,92570,Riverside,NX576,-117.31039,33.70888,249362,-474916
36,30489,C02115,RS0P06174046,4/16/2013,39,Unknown,0,2,N,2,CRB,0,4,2013,ACP, , ,16840 Multiview Dr,Perris,CA,92570,Riverside,NT568,-117.363857,33.818864,244067,-462864
37,30493,C02119-1,RI0P06148478,4/11/2013,39,Unknown,5,0,A,5,CRB,0,4,2013,ACP, , ,25049 Prospect Ave,Loma Linda,CA,92354,San Barnardino,NZ552,-117.257781,34.050197,253143,-436938
38,30505,C02124,RI0P06148989,4/16/2013,39,Unknown,0,3,N,3,CRB,0,4,2013,ACP, , ,24747 6th St,San Bernardino,CA,92410,San Barnardino,NZ548,-117.264059,34.110163,252372,-430305
39,30521,C02135-3,RV0P06163108,4/17/2013,39,Unknown,3,0,A,3,CRB,0,4,2013,ACP, , ,SE of Beaumont Ave. X Brynmawr Ave.,Redlands,CA, ,San Barnardino,OB553,-117.234468,34.037398,255336,-438294
40,30543,C02149-2,COAP06062450,4/18/2013,39,Unknown,0,5,N,5,CRB,0,4,2013,ACP, , ,6006 Coke Ave,Long Beach,CA,90805,Los Angeles,4711,-118.147106,33.864611,171462,-459508
42,30554,C02152-2,COAP06097090,4/17/2013,39,Unknown,0,5,N,5,CRB,0,4,2013,ACP, , ,22330 Joliet Ave,Hawaiian Gardens,CA,90716,Los Angeles,5109,-118.074336,33.82512,178284,-463753
44,30606,C02161-8,CO2P06117883,4/18/2013,39,Unknown,5,0,A,5,CRB,0,4,2013,ACP, , ,5949 Lakewood Blvd,Lakewood,CA,90712,Los Angeles,4711,-118.142793,33.863241,171864,-459652
45,30764,C02223,CE2P06183252,4/18/2013,39,Unknown,0,5,N,5,CRB,0,4,2013,ACP, , ,12403 224th St,Hawaiian Gardens,CA,90716,Los Angeles,5209,-118.067533,33.825569,178913,-463690
46,30814,C02238-3,CE2P06183276,4/18/2013,39,Unknown,5,0,A,5,CRB,0,4,2013,ACP, , ,205 N 12th St,Montebello,CA,90640,Los Angeles,4922,-118.11229,34.01319,174355,-442968
47,31061,C02341-2,RSAP06158196,4/17/2013,39,Unknown,3,0,A,3,CRB,0,4,2013,ACP, , ,12019 Diego Ct.,Moreno Valley,CA,92557,Riverside,OB559,-117.22581,33.94625,256431,-448377
48,31092,C02352-4,RSAP06159674,4/17/2013,39,Unknown,5,0,A,5,CRB,0,4,2013,ACP, , ,22932 Aqueduct Way,Moreno Valley,CA,92553,Riverside,NZ561,-117.262545,33.925237,253103,-450805
49,32952,C03158-5,CE2P06183597,4/29/2013,39,Unknown,4,0,A,4,CRB,0,4,2013,ACP, , ,622 S Sadler Av,Los Angeles,CA,90022,Los Angeles,MA555,-118.148158,34.022561,171022,-441994
51,33147,C03217-34,RSAP06159349,4/25/2013,39,Unknown,0,5,N,5,CRB,0,4,2013,ACP, , ,973 Silver Dust Trl,Hemet,CA,92545,Riverside,OO571,-117.011473,33.76319,276876,-468067
53,34603,C04537,RS0P06191999,5/15/2013,39,Unknown,5,0,A,5,CRB,0,5,2013,ACP, , ,23675 Continental Dr,Canyon Lake,CA,92587,Riverside,OB578,-117.245965,33.679474,255428,-478004
54,35900,C05594,RSAP06159056,6/5/2013,39,Unknown,0,6,N,6,CRB,0,6,2013,ACP, , ,4370 Rubidoux Ave,Riverside,CA,92506,Riverside,NR558,-117.398971,33.962695,240379,-447007
56,36486,C05965-7,RSAP06159737,6/11/2013,39,Unknown,0,25,N,25,CRB,0,6,2013,ACP, , ,18301 Decker Rd,Perris,CA,92570,Riverside,NZ566,-117.270217,33.856703,252613,-458424
57,36777,C06160-2,RS0P06192936,6/11/2013,39,Unknown,0,21,N,21,CRB,0,6,2013,ACP, , ,1233 Olivine Ave Unit C,Mentone,CA,92359,San Barnardino,OH551,-117.128553,34.068041,265009,-434606
58,36944,C06285-1,RS0P06193241,6/13/2013,39,Unknown,2,0,A,2,CRB,0,6,2013,ACP, , ,29418 Lupine Hills Dr,Lake Elsinore,CA,92530,Riverside,NR577,-117.409161,33.690236,240263,-477238
59,39541,C07935-3,RSAP06159832,7/3/2013,39,Unknown,0,25,N,25,CRB,0,7,2013,ACP, , ,7486 Westcliff Way,Eastvale,CA,92880,Riverside,NI559,-117.561118,33.952352,225427,-448552
61,41821,C09674,RS0P06203554,7/22/2013,39,Unknown,3,0,A,3,CRB,0,7,2013,ACP, , ,4278 Carnegie CT,Riverside,CA,92505,Riverside,NL563,-117.506333,33.901352,230638,-454075
62,42581,C10259,RS0P06193411,7/24/2013,39,Unknown,13,0,A,13,CRB,0,7,2013,ACP, , ,13680 Wilmot St,Moreno Valley,CA,92555,Riverside,OF561,-117.161056,33.92193,262495,-450896
66,42736,C10367,RS0P06202703,7/24/2013,39,Unknown,2,0,A,2,CRB,0,7,2013,ACP, , ,125 W Sunkist St,Ontario,CA,91762,San Barnardino,ND552,-117.6522,34.057833,216720,-437068
67,42750,C10381,RS0P06202777,7/24/2013,39,Unknown,3,0,A,3,CRB,0,7,2013,ACP, , ,27593 7th St,Highland,CA,92346,San Barnardino,OC548,-117.202299,34.112023,258061,-429933
68,42762,C10392,RSAP06205502,7/24/2013,39,Unknown,13,0,A,13,CRB,0,7,2013,ACP, , ,7625 Stoney Creek CT,Highland,CA,92346,San Barnardino,OD547,-117.197446,34.115205,258498,-429566
69,42789,C10409,RSAP06158882,7/25/2013,39,Unknown,12,0,A,12,CRB,0,7,2013,ACP, , ,26884 North Bay Ln,Sun City,CA,92585,Riverside,OG574,-117.153286,33.73039,263851,-472107
70,42815,C10426-1,RV0P06163324,7/25/2013,39,Unknown,0,25,N,25,CRB,0,7,2013,ACP, , ,"N of Victoria Ave., 0.10 mi SW of Cross St",Riverside,CA, ,Riverside,NO563,-117.459235,33.89048,235025,-455165
71,42823,C10433,RV0P06163331,7/25/2013,39,Unknown,0,20,N,20,CRB,0,7,2013,ACP, , ,"S of Cleveland Ave., W of Harrison St.",Riverside,CA, ,Riverside,NP563,-117.438508,33.897166,236922,-454372
72,42824,C10434-1,RS0P06173259,7/25/2013,39,Unknown,0,25,N,25,CRB,0,7,2013,ACP, , ,23697 Hayes Ave,Murrieta,CA,92562,Riverside,OB585,-117.238857,33.568744,256444,-490257
74,42938,C10510-3,RSAP06205493,7/25/2013,39,Unknown,0,18,N,18,CRB,0,7,2013,ACP, , ,13381 Dilbeck Dr,Moreno Valley,CA,92553,Riverside,OB561,-117.238364,33.926259,255335,-450627
76,42956,C10519-4,RSAP06205516,7/25/2013,39,Unknown,0,17,N,17,CRB,0,7,2013,ACP, , ,28819 Brahms Ln,Moreno Valley,CA,92555,Riverside,OF560,-117.15993,33.929343,262575,-450071
78,42976,C10534,RS0P06202746,7/25/2013,39,Unknown,4,0,A,4,CRB,0,7,2013,ACP, , ,18812 Buckskin Dr,Bloomington,CA,92316,San Barnardino,NR552,-117.39408,34.059988,240534,-436207
79,42988,C10543,RSAP06205505,7/25/2013,39,Unknown,4,0,A,4,CRB,0,7,2013,ACP, , ,7553 Sweetmeadow CT,Highland,CA,92346,San Barnardino,OC547,-117.206086,34.116491,257697,-429447
80,43027,C10564,CE2P06186817,7/31/2013,39,Unknown,1,0,A,1,CRB,0,7,2013,ACP, , ,15722 Victoria Ave,LA Puente,CA,91744,Los Angeles,MM555,-117.950089,34.027053,189301,-441120
81,43037,C10574-1,CE2P06209159,7/31/2013,39,Unknown,18,0,A,18,CRB,0,7,2013,ACP, , ,13548 Loumont St,Whittier,CA,90601,Los Angeles,MI554,-118.005266,34.033774,184191,-440483
82,43046,C10582,CE2P06209197,7/31/2013,39,Unknown,5,0,A,5,CRB,0,7,2013,ACP, , ,18677 Philbrook St,Rowland Heights,CA,91748,Los Angeles,MP558,-117.896523,33.972678,194381,-447041
83,43047,C10583,CE2P06209198,7/31/2013,39,Unknown,0,11,N,11,CRB,0,7,2013,ACP, , ,2617 Norsewood Dr,Rowland Heights,CA,91748,Los Angeles,MP558,-117.895448,33.972406,194481,-447069
84,43050,C10586,CE2P06209200,7/31/2013,39,Unknown,17,0,A,17,CRB,0,7,2013,ACP, , ,18752 Aguiro St,Rowland Heights,CA,91748,Los Angeles,MP558,-117.895233,33.974097,194496,-446881
85,43052,C10588,CE2P06209202,7/31/2013,39,Unknown,4,0,A,4,CRB,0,7,2013,ACP, , ,18458 Aguiro St,Rowland Heights,CA,91748,Los Angeles,MO558,-117.903707,33.972673,193717,-447056
86,43079,C10615,CE2P06209341,7/31/2013,39,Unknown,0,23,N,23,CRB,0,7,2013,ACP, , ,1497 W Grand Ave,Pomona,CA,91766,Los Angeles,MW553,-117.77141,34.047328,205745,-438499
87,43088,C10623-2,CE2P06209346,7/31/2013,39,Unknown,0,14,N,14,CRB,0,7,2013,ACP, , ,1807 W Phillips Dr,Pomona,CA,91766,Los Angeles,MV553,-117.782558,34.047208,204717,-438536
88,43094,C10628,CE2P06209350,7/31/2013,39,Unknown,13,0,A,13,CRB,0,7,2013,ACP, , ,1 Bonanza CT,Pomona,CA,91766,Los Angeles,MV554,-117.778653,34.036748,205104,-439688
89,43117,C10644,CE2P06209419,7/31/2013,39,Unknown,2,0,A,2,CRB,0,7,2013,ACP, , ,24010 Palomino Dr,Diamond Bar,CA,91765,Los Angeles,MU555,-117.800831,34.026164,203084,-440909
90,43118,C10645,CE2P06209421,7/31/2013,39,Unknown,2,0,A,2,CRB,0,7,2013,ACP, , ,542 N Del Sol Ln,Diamond Bar,CA,91765,Los Angeles,MU554,-117.799518,34.031565,203192,-440308
92,43141,C10665-2,CE2P06209478,7/31/2013,39,Unknown,0,25,N,25,CRB,0,7,2013,ACP, , ,1399 Rolling Knoll Rd,Diamond Bar,CA,91765,Los Angeles,MU556,-117.807602,33.996295,202536,-444236
93,43143,C10665-4,CE2P06209478,7/31/2013,39,Unknown,0,25,N,25,CRB,0,7,2013,ACP, , ,1399 Rolling Knoll Rd,Diamond Bar,CA,91765,Los Angeles,MU556,-117.807602,33.996295,202536,-444236
94,43144,C10665-5,CE2P06209478,7/31/2013,39,Unknown,0,25,N,25,CRB,0,7,2013,ACP, , ,1399 Rolling Knoll Rd,Diamond Bar,CA,91765,Los Angeles,MU556,-117.807602,33.996295,202536,-444236
95,43148,C10667,CE2P06209479,7/31/2013,39,Unknown,0,15,N,15,CRB,0,7,2013,ACP, , ,17333 Villa Park St,LA Puente,CA,91744,Los Angeles,MN555,-117.925905,34.014758,191564,-442435
96,43151,C10670,CE2P06209670,7/31/2013,39,Unknown,10,0,A,10,CRB,0,7,2013,ACP, , ,19126 Jacob Ave,Cerritos,CA,90703,Los Angeles,ME567,-118.076854,33.856525,177980,-460275
97,43159,C10677,RV0P06163359,7/31/2013,39,Unknown,6,0,A,6,CRB,0,7,2013,ACP, , ,"SE of Santa Ana River Trail, 0.31 mi E of Cam De B",Yorba Linda,CA, ,Orange,NA565,-117.70258,33.874236,212564,-457540
98,43168,C10685-1,RSAP06158357,7/30/2013,39,Unknown,0,25,N,25,CRB,0,7,2013,ACP, , ,33081 Orchard St,Wildomar,CA,92595,Riverside,NY580,-117.283883,33.6401,252037,-482469
99,43185,C10696,RSAP06158919,7/30/2013,39,Unknown,1,0,A,1,CRB,0,7,2013,ACP, , ,30090 Calle Carranza,Temecula,CA,92592,Riverside,OH590,-117.135006,33.503184,266306,-497235
100,43220,C10726,RS0P06202652,7/30/2013,39,Unknown,2,0,A,2,CRB,0,7,2013,ACP, , ,10543 Gramercy Pl,Riverside,CA,92505,Riverside,NM561,-117.485597,33.930137,232471,-450833
101,43240,C10743,RS0P06202967,7/30/2013,39,Unknown,1,0,A,1,CRB,0,7,2013,ACP, , ,30596 Southern Cross Rd,Temecula,CA,92592,Riverside,OI589,-117.126849,33.503207,267064,-497210
103,43250,C10753,RS0P06203407,7/30/2013,39,Unknown,7,0,A,7,CRB,0,7,2013,ACP, , ,6910 Sedona Dr,Riverside,CA,92509,Riverside,MP555,-117.434261,34.006398,236987,-442250
104,43255,C10758,RS0P06203437,7/30/2013,39,Unknown,4,0,A,4,CRB,0,7,2013,ACP, , ,22912 Belcara Pl,Murrieta,CA,92562,Riverside,OA585,-117.260182,33.572616,254452,-489885
105,43259,C10762,RS0P06203735,7/30/2013,39,Unknown,2,0,A,2,CRB,0,7,2013,ACP, , ,935 Park Ave,Calimesa,CA,92320,Riverside,OL555,-117.058362,34.003213,271708,-441595
106,43271,C10769,RS0P06204400,7/30/2013,39,Unknown,15,0,A,15,CRB,0,7,2013,ACP, , ,10388 Brookway Pl,Riverside,CA,92505,Riverside,NN561,-117.470116,33.918895,233935,-452042
107,43282,C10777,RS0P06204522,7/30/2013,39,Unknown,3,0,A,3,CRB,0,7,2013,ACP, , ,6248 Cross River Dr,Riverside,CA,92509,Riverside,NO558,-117.446938,33.974519,235912,-445817
108,43288,C10782-2,RS0P06204551,7/30/2013,39,Unknown,0,15,N,15,CRB,0,7,2013,ACP, , ,21490-A Garfield Rd,Perris,CA,92570,Riverside,NY575,-117.284563,33.717894,251727,-473849
110,43301,C10791-1,RSAP06205338,7/30/2013,39,Unknown,0,15,N,15,CRB,0,7,2013,ACP, , ,13548 Aspen Grove Rd,Eastvale,CA,92880,Riverside,NH558,-117.579129,33.967587,223719,-446906
111,43302,C10791-2,RSAP06205338,7/30/2013,39,Unknown,0,14,N,14,CRB,0,7,2013,ACP, , ,13548 Aspen Grove Rd,Eastvale,CA,92880,Riverside,NH558,-117.579129,33.967587,223719,-446906
112,43353,C10827-1,RSAP06205523,7/30/2013,39,Unknown,0,25,N,25,CRB,0,7,2013,ACP, , ,6539 Thunder Bay Trl,Riverside,CA,92509,Riverside,NO558,-117.453153,33.971819,235346,-446132
113,43356,C10827-4,RSAP06205523,7/30/2013,39,Unknown,0,25,N,25,CRB,0,7,2013,ACP, , ,6539 Thunder Bay Trl,Riverside,CA,92509,Riverside,NO558,-117.453153,33.971819,235346,-446132
114,43357,C10827-5,RSAP06205523,7/30/2013,39,Unknown,0,12,N,12,CRB,0,7,2013,ACP, , ,6539 Thunder Bay Trl,Riverside,CA,92509,Riverside,NO558,-117.453153,33.971819,235346,-446132
116,43578,C11001-1,CE2P06208911,7/29/2013,39,Unknown,16,0,A,16,CRB,0,7,2013,ACP, , ,10205 Holbrook St,Whittier,CA,90606,Los Angeles,MF557,-118.071393,33.992084,178180,-445233
117,43625,C11034,CE2P06209035,7/29/2013,39,Unknown,4,0,A,4,CRB,0,7,2013,ACP, , ,17636 Ember Dr,Rowland Heights,CA,91748,Los Angeles,MN558,-117.921477,33.981843,192053,-446076
122,43737,C11128-3,CE2P06209290,7/29/2013,39,Unknown,0,17,N,17,CRB,0,7,2013,ACP, , ,444 S Sandalwood Ave,LA Puente,CA,91744,Los Angeles,MN556,-117.918758,34.012184,192230,-442705
123,43740,C11130,CE2P06209291,7/29/2013,39,Unknown,0,15,N,15,CRB,0,7,2013,ACP, , ,2680 Pepperdale Dr,Rowland Heights,CA,91748,Los Angeles,MQ558,-117.869167,33.969296,196917,-447360
124,43832,C11209-4,CE2P06209474,7/30/2013,39,Unknown,0,17,N,17,CRB,0,7,2013,ACP, , ,23549 Coyote Springs Dr,Diamond Bar,CA,91765,Los Angeles,MU557,-117.804628,33.994977,202814,-444376
126,43961,C11308,RS0P06203370,7/29/2013,39,Unknown,1,0,A,1,CRB,0,7,2013,ACP, , ,17434 Blue Water CT,Riverside,CA,92503,Riverside,NO565,-117.462965,33.866312,234752,-457854
127,44136,C11440,RS0P06202585,7/31/2013,39,Unknown,3,0,A,3,CRB,0,7,2013,ACP, , ,25344 Adams Ave,Murrieta,CA,92562,Riverside,OD587,-117.20229,33.548292,259906,-492423
128,44376,C11623,CE2P06208933,8/1/2013,39,Unknown,0,12,N,12,CRB,0,8,2013,ACP, , ,22914 Beaverhead Dr,Diamond Bar,CA,91765,Los Angeles,MT555,-117.81547,34.022825,201741,-441311
129,44438,C11675,CE2P06209509,8/1/2013,39,Unknown,7,0,A,7,CRB,0,8,2013,ACP, , ,12808 Farnell St,Baldwin Park,CA,91706,Los Angeles,MJ552,-117.996656,34.062393,184919,-437292
130,44478,C11713-1,CE2P06208945,8/6/2013,39,Unknown,0,25,N,25,CRB,0,8,2013,ACP, , ,1001 Citrus,LA Habra,CA,90631,Orange,ML560,-117.957179,33.941658,188850,-450604
131,44488,C11720,CE2P06208951,8/6/2013,39,Unknown,2,0,A,2,CRB,0,8,2013,ACP, , ,441 E Avocado Crest Rd,LA Habra,CA,90631,Los Angeles,ML560,-117.957003,33.953475,188838,-449293
132,44499,C11730,CE2P06209133,8/6/2013,39,Unknown,2,0,A,2,CRB,0,8,2013,ACP, , ,1643 Aspen Grove Ln,Diamond Bar,CA,91765,Los Angeles,MT557,-117.823414,33.992201,201086,-444724
133,44503,C11734,CE2P06209137,8/6/2013,39,Unknown,3,0,A,3,CRB,0,8,2013,ACP, , ,21786 Santaquin Dr,Diamond Bar,CA,91765,Los Angeles,MT557,-117.833178,33.990609,200188,-444921
134,44505,C11736,CE2P06209139,8/6/2013,39,Unknown,1,0,A,1,CRB,0,8,2013,ACP, , ,835 Darius Dr,Walnut,CA,91789,Los Angeles,MR556,-117.850002,34.001918,198605,-443702
135,44516,C11747,CE2P06209217,8/6/2013,39,Unknown,5,0,A,5,CRB,0,8,2013,ACP, , ,8632 San Antonio Ave,South Gate,CA,90280,Los Angeles,LX560,-118.204517,33.956185,165957,-449455
136,44518,C11749,CE2P06209219,8/6/2013,39,Unknown,2,0,A,2,CRB,0,8,2013,ACP, , ,8662 State St,South Gate,CA,90280,Los Angeles,LX560,-118.211977,33.956155,165268,-449472
137,44526,C11754-4,CE2P06209224,8/6/2013,39,Unknown,0,15,N,15,CRB,0,8,2013,ACP, , ,8940 San Carlos Ave,South Gate,CA,90280,Los Angeles,LX560,-118.203887,33.952745,166023,-449836
138,44528,C11756,CE2P06209277,8/6/2013,39,Unknown,1,0,A,1,CRB,0,8,2013,ACP, , ,9560 Arkansas St,Bellflower,CA,90706,Los Angeles,MB565,-118.129659,33.879314,173044,-457846
139,44534,C11759,CE2P06209278,8/6/2013,39,Unknown,4,0,A,4,CRB,0,8,2013,ACP, , ,9461 Park St,Bellflower,CA,90706,Los Angeles,MB565,-118.13175,33.878449,172852,-457946
140,44537,C11762,CE2P06209282,8/6/2013,39,Unknown,1,0,A,1,CRB,0,8,2013,ACP, , ,12722 Samoline Ave,Downey,CA,90242,Los Angeles,MA562,-118.154224,33.923212,170677,-453023
141,44548,C11773,CE2P06209480,8/6/2013,39,Unknown,3,0,A,3,CRB,0,8,2013,ACP, , ,8903 Guatemala Ave,Downey,CA,90240,Los Angeles,MB559,-118.128421,33.967427,172966,-448073
142,44559,C11781,CE2P06209488,8/6/2013,39,Unknown,2,0,A,2,CRB,0,8,2013,ACP, , ,8115 Pageant St,Downey,CA,90240,Los Angeles,MC559,-118.12,33.963263,173753,-448519
143,44631,C11845,CE2P06210012,8/6/2013,39,Unknown,14,0,A,14,CRB,0,8,2013,ACP, , ,161 W 48th St,Los Angeles,CA,90037,Los Angeles,LT557,-118.27614,33.999198,159251,-444808
144,44846,C12019,RS0P06173410,8/1/2013,39,Unknown,0,12,N,12,CRB,0,8,2013,ACP, , ,23963 Five Tribes Trl,Murrieta,CA,92562,Riverside,OD584,-117.202952,33.591226,259704,-487667
147,45557,C12595-3,RS0P06204200,8/7/2013,39,Unknown,0,25,N,25,CRB,0,8,2013,ACP, , ,6914 El Camino Pl,Riverside,CA,92504,Riverside,NQ559,-117.419676,33.947441,238512,-448751
148,46614,C13456,CO2P06092916,8/20/2013,39,Unknown,2,0,A,2,CRB,0,8,2013,ACP, , ,12218 Christopher Ln,Cerritos,CA,90703,Los Angeles,MF567,-118.071478,33.851953,178488,-460772
149,46656,C13495,CE2P06209942,8/20/2013,39,Unknown,1,0,A,1,CRB,0,8,2013,ACP, , ,11419 E Broadmead St,South El Monte,CA,91733,Los Angeles,MH554,-118.03165,34.040673,181739,-439769
281,73465,C16003-1,AM0P06229322,12/6/2013,39,Unknown,0,25,N,25,CRB,0,12,2013,ACP, , ,5591 Lincoln Ave,Cypress,CA,90630,Orange,MH568,-118.035209,33.831788,181890,-462939
282,73941,C16444,VN0P06190277,12/11/2013,39,Unknown,2,0,A,2,CRB,0,12,2013,HLB, , ,1125 Penrose St,Sun Valley,CA,91352,Los Angeles,LN541,-118.3732,34.22783,149851,-419607
235,65622,C14-16956,SD1P06224617,6/26/2014,39.02470398,Unknown,3,0,A,3,CRB,1,6,2014,HLB,12,63,981 Berkeley Way,Vista,CA,92084,San Diego, ,-117.21859,33.19246,259549,-531891
181,63933,C14-15474,CE2P06239305,6/26/2014,39.04962158,Unknown,3,0,A,3,CRB,1,6,2014,HLB,12,63,17382 Jacaranda Ave,Tustin,CA,92780,Orange,MT573,-117.8288,33.755473,201189,-470983
190,64297,C14-15792-2,RS0P06294162,6/17/2014,39.09079742,Unknown,0,16,N,16,CRB,1,6,2014,HLB,12,63,138 W Orangewood Ave,Anaheim,CA,92802,Orange,MO571,-117.908049,33.796094,193748,-466645
189,64112,C14-15630,RS0P06273072,6/17/2014,39.10933685,Unknown,2,0,A,2,CRB,1,6,2014,HLB,12,63,12192 Marble Cir,Garden Grove,CA,92843,Orange,MO572,-117.91679,33.771413,192998,-469399
271,66099,C14-17395-4,RV0P06252901,7/15/2014,39.13832855,Unknown,0,25,N,25,CRB, ,7,2014,ACP,12,30,"0.01 mi. S of Pauma Reservation Rd., 0.23 mi. E of",Pauma Valley,CA, ,San Diego,OQ601,-116.9974584,33.3314184,279690,-515870
195,65279,C14-16648,CE2P06293760,7/2/2014,39.15267563,Unknown,1,0,A,1,CRB,1,7,2014,HLB,12,63,17081 Newquist Ln,Huntington Beach,CA,92649,Orange,MH576,-118.035792,33.714211,182107,-475976
199,65323,C14-16692,RV0P06252871,7/7/2014,39.16123962,Unknown,0,10,N,10,CRB, ,7,2014,ACP,12,30,0.43 mi. N of Pala Mission Rd. 0.20 mi. E of Hende,Pala,CA, ,San Diego,OM599,-117.0649534,33.3702916,273272,-511760
150,48338,C14-01018,RS0P06218153,1/9/2014,39.16673279,Unknown,1,0,A,1,CRB, ,1,2014,ACP,12,63,1902 E Hawthorne CT,Ontario,CA,91764,San Bernardino,NF550,-117.61079,34.083553,220470,-434121
221,65519,C14-16866-2,RS0P06294444,7/8/2014,39.17155457,Unknown,1,0,A,1,CRB,1,7,2014,HLB,12,63,24791 Georgia Sue Dr.,Laguna Hills,CA,92653,Orange,NB583,-117.697306,33.604934,213777,-487383
214,65439,C14-16794,RS0P06274697,7/8/2014,39.17734909,Unknown,3,0,A,3,CRB,1,7,2014,HLB,12,63,25151 Pizarro Rd,Lake Forest,CA,92630,Orange,NB582,-117.691669,33.634672,214220,-484074
219,65492,C14-16840,RS0P06294307,7/1/2014,39.24638367,Unknown,2,0,A,2,CRB,1,7,2014,HLB,12,63,16 Wildwheat,Irvine,CA,92614,Orange,MU579,-117.817048,33.669067,202499,-480537
229,65537,C14-16883,RS0P06294675,7/2/2014,39.26765823,Unknown,6,0,A,6,CRB,1,7,2014,HLB,12,63,1 Jefferson,Irvine,CA,92620,Orange,MW576,-117.77416,33.707472,206376,-476187
171,63032,C14-14722,SDAP06284221,6/16/2014,39.29658508,Unknown,10,0,A,10,CRB,1,6,2014,HLB,12,63,910 Lochwood Pl,Escondido, ,92026,San Diego,OL612,-117.08436,33.16998,272148,-534005
188,64107,C14-15625,RSAP06207000,6/24/2014,39.31072617,Unknown,0,18,N,18,CRB,1,6,2014,HLB,12,63,525 W Main St,Tustin,CA,92780,Orange,MT574,-117.828949,33.742118,201209,-472464
191,64302,C14-15797,RS0P06294165,6/17/2014,39.31244278,Unknown,1,0,A,1,CRB,1,6,2014,HLB,12,63,2184 S Madrid St,Anaheim,CA,92802,Orange,MO571,-117.912036,33.793211,193386,-466972
273,66264,C14-17551,RS0P06294494,7/14/2014,39.34728241,Unknown,1,0,A,1,CRB,1,7,2014,HLB,12,63,109 Via Estrada,Laguna Woods,CA,92637,Orange,NA584,-117.708841,33.605844,212704,-487308
186,64053,C14-15575,SDAP06287027,6/25/2014,39.39614105,Unknown,0,4,N,4,CRB,1,6,2014,HLB,12,63,310 Smilax Rd    MHP SPC# 110,Vista,CA,92069,San Diego,OE613,-117.20522,33.15744,260911,-535733
155,58374,C14-10658,RS0P06272319,4/22/2014,39.41556549,Unknown,4,0,A,4,CRB,1,4,2014,HLB,12,63,1372 Martin Luther King Jr Ave,Long Beach,CA,90813,Los Angeles,LZ572,-118.180641,33.783606,168531,-468550
276,67592,C14-18680,SDAP06312813,8/12/2014,39.43261719,Unknown,6,0,A,6,CRB,1,8,2014,HLB,12,63,1045 Nordahl Rd,San Marcos,CA,92069,San Diego, ,-117.11676,33.14024,269225,-537391
166,62981,C14-14680,RS0P06294013,6/12/2014,39.45460129,Unknown,0,19,N,19,CRB,1,6,2014,HLB,12,63,10281 Woodbury Rd,Garden Grove,CA,92843,Orange,MM573,-117.950092,33.762391,189935,-470466
168,63002,C14-14696-2,RV0P06252933,6/16/2014,39.4606781,Unknown,0,15,N,15,CRB, ,6,2014,ACP,12,30,"0.01 mi. E of John St.,0.01 mi.  E of Trails End",Riverside,CA, ,Riverside,NP563,-117.4369834,33.8888534,237088,-455290
180,63832,C14-15381,RV0P06252811,6/23/2014,39.50275421,Unknown,0,9,N,9,CRB, ,6,2014,ACP,12,30,"0.08 mi. W of Magee Rd., 1.54 mi. N of Hwy 76",Pala,CA, ,San Diego,ON598,-117.0465284,33.3833234,274942,-510263
270,65832,C14-17154,SDAP06285654,7/1/2014,39.50576019,Unknown,1,0,A,1,CRB,1,7,2014,HLB,12,63,1295 Glenview Ln,Vista,CA,92084,San Diego, ,-117.22173,33.1867,259275,-532538
231,65593,C14-16928,RS0P06295089,7/2/2014,39.56184769,Unknown,2,0,A,2,CRB,1,7,2014,HLB,12,63,10212 Overhill Dr,Santa Ana,CA,92705,Orange,MW572,-117.76744,33.771263,206833,-469100
175,63697,C14-15272,RS0P06274524,6/16/2014,39.57554245,Unknown,0,22,N,22,CRB,1,6,2014,HLB,12,63,12731 Lorna St,Garden Grove,CA,92841,Orange,MK572,-117.980783,33.77771,187056,-468829
249,65673,C14-17005,SDAP06287152,6/26/2014,39.57778549,Unknown,0,15,N,15,CRB,1,6,2014,HLB,12,63,9240 Hightop Ter,Lakeside,CA,92040,San Diego, ,-116.9399,32.8466,286783,-569387
241,65660,C14-16993,SDAP06285944,6/25/2014,39.59114075,Unknown,0,1,N,1,CRB,1,6,2014,HLB,12,63,13904 Sagewood Dr.,Poway,CA,92064,San Diego,OO623,-117.03015,33.01649,277739,-550846
185,63995,C14-15526,SDAP06284878,6/19/2014,39.61326599,Unknown,7,0,A,7,CRB,1,6,2014,HLB,12,63,1174 Sunset Dr,Vista,CA,92081,San Diego,OB612,-117.24988,33.17913,256673,-533453
177,63727,C14-15297,RS0P06274651,6/16/2014,39.62125015,Unknown,0,14,N,14,CRB,1,6,2014,HLB,12,63,13551 Yockey St,Garden Grove,CA,92844,Orange,MK573,-117.976842,33.765671,187449,-470156
164,62763,C14-14493,CE2P06239924,6/12/2014,39.62392044,Unknown,7,0,A,7,CRB,1,6,2014,HLB,12,63,13202 Hoover St Space #1,Westminster,CA,92683,Orange,MJ572,-117.998566,33.772332,185421,-469460
154,57816,C14-10115-2,RSAP06206703,4/18/2014,39.64101028,Unknown,1,0,A,1,CRB,1,4,2014,HLB,12,63,2823 Exposition Pl,Los Angeles,CA,90018,Los Angeles,LQ556,-118.326763,34.020358,154534,-442545
156,58588,C14-10859,CE2P06238844,4/28/2014,39.64358902,Unknown,1,0,A,1,CRB,1,4,2014,HLB,12,63,17914 Cordary Ave,Torrance,CA,90504,Los Angeles,LP566,-118.341596,33.867991,153460,-459466
233,65604,C14-16939,RS0P06295101,7/3/2014,39.65598679,Unknown,17,0,A,17,CRB,1,7,2014,HLB,12,63,2110 N Mantle Ln,Santa Ana,CA,92705,Orange,MS573,-117.842753,33.765241,199872,-469930
179,63823,C14-15374,RV0P06252961,6/23/2014,39.66041565,Unknown,0,11,N,11,CRB, ,6,2014,ACP,12,30,"0.03 mi. SE of Grove Dr., 0.01 mi. E of Mc Alliste",Riverside,CA, ,Riverside,NP565,-117.4366534,33.8703834,237174,-457337
265,65815,C14-17139,SDAP06284924,6/26/2014,39.66951752,Unknown,1,0,A,1,CRB,1,6,2014,HLB,12,63,3518 Hollencrest Rd,San Marcos,CA,92069,San Diego, ,-117.19774,33.15399,261620,-536095
254,65728,C14-17055,RS0P06274701,7/9/2014,39.69279861,Unknown,3,0,A,3,CRB,1,7,2014,HLB,12,63,25311 Cheyenne Way,Lake Forest,CA,92630,Orange,NB581,-117.688374,33.643188,214503,-483122
220,65507,C14-16855,RS0P06294322,7/7/2014,39.704319,Unknown,1,0,A,1,CRB,1,7,2014,HLB,12,63,4531 Sandburg Way,Irvine,CA,92612,Orange,MU580,-117.820759,33.661272,202174,-481409
194,64748,C14-16182,RS0P06294221,6/26/2014,39.70552826,Unknown,0,11,N,11,CRB,1,6,2014,HLB,12,63,1300 S Auto Center Dr,Anaheim,CA,92806,Orange,MQ569,-117.874319,33.815513,196823,-464422
222,65524,C14-16871,RS0P06294488,7/8/2014,39.7089386,Unknown,2,0,A,2,CRB,1,7,2014,HLB,12,63,24522 Creekview Dr,Laguna Hills,CA,92653,Orange,NA583,-117.7021,33.604569,213333,-487434
217,65472,C14-16825,RS0P06294231,7/2/2014,39.72370529,Unknown,2,0,A,2,CRB,1,7,2014,HLB,12,63,6943 E Avenida de Santiago,Anaheim,CA,92807,Orange,MX568,-117.747996,33.833087,208471,-462204
162,59855,C14-12022,RV0P06222745,5/13/2014,39.72394562,Unknown,2,0,A,2,CRB, ,5,2014,ACP,12,30,"0.04 mi. S of Via Apore, 0.01 mi. W of De Portola",Temecula,CA, ,Riverside,OO588,-117.0168434,33.5277668,277200,-494173
250,65685,C14-17017,SDAP06287158,6/26/2014,39.72589493,Unknown,1,0,A,1,CRB,1,6,2014,HLB,12,63,9446 Riverview Ave,Lakeside,CA,92040,San Diego, ,-116.93724,32.84782,287028,-569244
272,66170,C14-17461,SDAP06311153,7/3/2014,39.75792694,Unknown,5,0,A,5,CRB,1,7,2014,HLB,12,63,15130 Rios Canyon Rd,El Cajon,CA,92021,San Diego, ,-116.84794,32.82923,295462,-571028
253,65716,C14-17043,RS0P06273998,7/8/2014,39.75795746,Unknown,2,0,A,2,CRB,1,7,2014,HLB,12,63,24095 Hurst Dr,Lake Forest,CA,92630,Orange,NA582,-117.709524,33.627125,212583,-484950
232,65597,C14-16932,RS0P06295093,7/2/2014,39.75963593,Unknown,13,0,A,13,CRB,1,7,2014,HLB,12,63,1890 Lemon Heights Dr,Santa Ana,CA,92705,Orange,MW573,-117.778952,33.760649,205794,-470302
275,67155,C14-18328-1,SDAP06312762,7/29/2014,39.76063538,Unknown,13,0,A,13,CRB,1,7,2014,HLB,12,63,9140 Creekford Dr,Lakeside,CA,92040,San Diego, ,-116.93664,32.84301,287102,-569775
153,57742,C14-10046,CE2P06238298,4/16/2014,39.77641678,Unknown,7,0,A,7,CRB,1,4,2014,HLB,12,63,3608 N Broadway,Los Angeles,CA,90031,Los Angeles,LX552,-118.202129,34.073813,165931,-436406
255,65753,C14-17080,RS0P06294683,7/9/2014,39.78481293,Unknown,1,0,A,1,CRB,1,7,2014,HLB,12,63,1050 Presidio Dr,Costa Mesa,CA,92626,Orange,MP579,-117.90179,33.671798,194632,-480411
212,65431,C14-16786,RS0P06274690,7/3/2014,39.80798721,Unknown,1,0,A,1,CRB,1,7,2014,HLB,12,63,35 Belmonte,Irvine,CA,92620,Orange,MX577,-117.758573,33.704214,207830,-476514
159,59100,C14-11327,CE2P06238773,5/1/2014,39.81103516,Unknown,1,0,A,1,CRB,1,5,2014,HLB,12,63,6300 Myrtle Ave,Long Beach,CA,90805,Los Angeles,LY566,-118.182056,33.869321,168218,-459048
176,63705,C14-15280-1,RS0P06274545,6/16/2014,39.83758926,Unknown,0,15,N,15,CRB,1,6,2014,HLB,12,63,1516 E Washington Ave,Santa Ana,CA,92701,Orange,MS573,-117.84784,33.756524,199423,-470907
157,58674,C14-10944,RSAP06206570,4/24/2014,39.84104156,Unknown,5,0,A,5,CRB,1,4,2014,HLB,12,63,348 E Everett Pl,Orange, ,92867,Orange,MS570,-117.84991,33.798233,199126,-466287
218,65478,C14-16830,RS0P06294237,7/3/2014,39.85129929,Unknown,14,0,A,14,CRB,1,7,2014,HLB,12,63,27641 Gold Dust Ln,Laguna Hills,CA,92653,Orange,NB586,-117.686758,33.561357,214874,-492189
161,59689,C14-11878,RS0P06272705,5/12/2014,39.85787201,Unknown,3,0,A,3,CRB,1,5,2014,HLB,12,63,2343 Marber Ave,Long Beach,CA,90815,Los Angeles,MC570,-118.124063,33.8004,173735,-466586
182,63940,C14-15481-1,CE2P06239780,6/26/2014,39.86690903,Unknown,0,25,N,25,CRB,1,6,2014,HLB,12,63,13782 Gershon Pl,Santa Ana,CA,92705,Orange,MU573,-117.812697,33.762718,202663,-470145
184,63981,C14-15512,RV0P06252977,6/26/2014,39.87042236,Unknown,0,15,N,15,CRB, ,6,2014,ACP,12,30,"0.08 mi. W of Harley John Rd., 0.33 mi. S of Scott",Riverside,CA, ,Riverside,NU567,-117.3614584,33.8425784,244215,-460229
196,65283,C14-16652,VN0P06190068,7/1/2014,39.88261414,Unknown,2,0,A,2,CRB,1,7,2014,HLB,12,63,21506 Via Sombreada,Lake Forest,CA,92630,Orange, ,-117.701128,33.650379,213300,-482354
163,61304,C14-13263,COAP06097926,5/28/2014,39.89781952,Unknown,3,0,A,3,CRB,1,5,2014,HLB,12,63,17414 Sandlake Ave,Carson,CA,90746,Los Angeles,LU566,-118.260437,33.872452,160960,-458837
192,64322,C14-15815,RS0P06294187,6/19/2014,39.90001678,Unknown,3,0,A,3,CRB,1,6,2014,HLB,12,63,991 Azalea Dr,Costa Mesa,CA,92626,Orange,MP577,-117.897541,33.695833,194967,-477738
278,70015,C14-20693,RS0P06310449,9/18/2014,39.90211487,Unknown,7,0,A,7,CRB,1,9,2014,HLB,12,63,4640 Calle de Retiro,Oceanside,CA,92057,San Diego,NY607,-117.311659,33.249298,250688,-525846
172,63034,C14-14724,SDAP06284436,6/16/2014,39.90789413,Unknown,0,15,N,15,CRB,1,6,2014,HLB,12,63,2911 Laurashawn Ln,Escondido,CA,92026,San Diego,OL612,-117.08707,33.17458,271879,-533503
151,53843,C14-06294,RSAP06158516,2/24/2014,39.93151855,Unknown,0,1,N,1,CRB,1,2,2014,HLB,12,63,1924 Oceanaire Way,Upland,CA,91784,San Bernardino,ND547,-117.648457,34.133126,216858,-428710
198,65319,C14-16688,RV0P06252868,7/7/2014,39.93184662,Unknown,8,0,A,8,CRB, ,7,2014,ACP,12,30,1.28 mi. N of Pala Mission Rd. 0.27 mi. NE end of,Pala,CA, ,San Diego,OM598,-117.0563582,33.38017,274038,-510641
252,65708,C14-17037,RSAP06205868,7/9/2014,39.94382858,Unknown,0,8,N,8,CRB,1,7,2014,HLB,12,63,25732 Pericles St,Mission Viejo,CA,92691,Orange,NC584,-117.681089,33.600995,215293,-487782
228,65531,C14-16878,RS0P06294668,7/1/2014,39.95704651,Unknown,1,0,A,1,CRB,1,7,2014,HLB,12,63,4162 Salacia Dr,Irvine,CA,92620,Orange,MW576,-117.775256,33.713456,206259,-475526
173,63059,C14-14744,SDAP06285333,6/16/2014,39.9721756,Unknown,5,0,A,5,CRB,1,6,2014,HLB,12,63,448 Rancho Vista Rd,Vista, ,92083,San Diego,OC611,-117.24356,33.19543,257210,-531630
200,65324,C14-16693,SDAP06284954,6/24/2014,39.98363495,Unknown,12,0,A,12,CRB,1,6,2014,HLB,12,63,360 Estrelita Dr,Vista,CA,92084,San Diego, ,-117.20026,33.17081,261330,-534239
204,65342,C14-16710,SDAP06286575,6/30/2014,39.99487686,Unknown,3,0,A,3,CRB,1,6,2014,HLB,12,63,11921 Lemon Crest Dr,Lakeside,CA,92040,San Diego, ,-116.93502,32.84906,287232,-569100
283,76086,E14-00005,CE2P06236043,1/2/2014,39.38,NEG,13,0,A,13,CDFA, ,1,2014,ACP,12,63,1720 Lancewood Ave,Hacienda Heights,CA,91745,Los Angeles,ML557,-117.965969,34.00043,187898,-444104
284,76095,E14-00014,CE2P06213287,1/6/2014,37.66,NEG,1,0,A,1,CDFA, ,1,2014,ACP,12,63,16071 Flamstead Dr,Hacienda Heights,CA,91745,Los Angeles,ML556,-117.958513,33.9975,188594,-444414
285,76099,E14-00018,CE2P06236045,1/6/2014,37.56,NEG,1,0,A,1,CDFA, ,1,2014,ACP,12,63,1716 Lancewood Ave,Hacienda Heights,CA,91745,Los Angeles,ML557,-117.965919,34.000579,187902,-444087
286,76101,E14-00020,CE2P06236049,1/6/2014,37.87,NEG,5,0,A,5,CDFA, ,1,2014,ACP,12,63,1909 Olympus Ave,Hacienda Heights,CA,91745,Los Angeles,ML557,-117.96585,33.998271,187914,-444343
287,76115,E14-00042,CE2P06235035,1/7/2014,39.67,NEG,6,0,A,6,CDFA, ,1,2014,ACP,12,63,1831 Pontenova Ave,Hacienda Heights,CA,91745,Los Angeles,ML557,-117.964789,33.998611,188011,-444303
288,76207,E14-00134,CE2P06235609,1/29/2014,38.68,NEG,12,0,A,12,CDFA, ,1,2014,ACP,12,63,16351 Folger St,Hacienda Heights,CA,91745,Los Angeles,ML556,-117.949131,34.006147,189440,-443436
289,76246,E14-00173,CE2P06235238,2/6/2014,39.6,NEG,3,0,A,3,CDFA, ,2,2014,ACP,12,63,4025 S Ellesford Ave,West Covina,CA,91792,Los Angeles,MP556,-117.886032,34.005354,195269,-443396
290,76253,E14-00180,CE2P06237106,2/11/2014,39.98,NEG,1,0,A,1,CDFA, ,2,2014,ACP,12,63,1869 Kellerton Dr,Hacienda Heights,CA,91745,Los Angeles,ML557,-117.961031,33.997538,188361,-444415
291,76303,E14-00230,RSAP06206631,5/3/2014,39.25,NEG,10,0,A,10,CDFA,1,5,2014,HLB,12,63,4351 Walnut St,Cudahy,CA,90201,Los Angeles,LY559,-118.190327,33.969408,167241,-447964
292,76305,E14-00232,CE2P06238829,4/29/2014,39.54,NEG,10,0,A,10,CDFA,1,4,2014,HLB,12,63,15802 Clarkgrove St,Hacienda Heights,CA,91745,Los Angeles,ML556,-117.96106,34.013795,188320,-442612
293,76453,E14-00380,CE2P06293853,7/14/2014,39.15,NEG,3,0,A,3,CDFA,1,7,2014,HLB,12,63,15725 Kennard St,Hacienda Heights,CA,91745,Los Angeles,ML556,-117.96741,34.000147,187766,-444138
294,76552,E14-00481,CE2P06293216,7/28/2014,39.17,NEG,8,0,A,8,CDFA,1,7,2014,HLB,12,63,16111 Hollis St,Hacienda Heights,CA,91745,Los Angeles,ML557,-117.957466,33.99933,188686,-444209
295,76609,E14-00538,CE2P06293800,8/4/2014,39.91,NEG,1,0,A,1,CDFA,1,8,2014,HLB,12,63,15735 Clarkgrove St,Hacienda Heights,CA,91745,Los Angeles,ML556,-117.962189,34.014236,188214,-442565
296,76712,E14-00642,CE2P06292983,8/19/2014,39.48,NEG,10,0,A,10,CDFA,1,8,2014,HLB,12,63,1610 Larchwood Ave,Hacienda Heights,CA,91745,Los Angeles,ML556,-117.968359,34.003101,187671,-443812
2221,279505,E17-42348,AM0P06724260,11/3/2017,39.51319122,INCON,20,0,A,20,CDFA, ,11,2017,HLB,12,63,11830 Ferina St,Norwalk,CA,90650,Los Angeles, ,-118.08132,33.89308,177485,-456230
298,76748,E14-00678,CE2P06293616,8/25/2014,38.07,NEG,0,0,N,0,CDFA,1,8,2014,HLB,12,63,1416 Falstone Ave,Hacienda Heights,CA,91745,Los Angeles,ML556,-117.961489,34.00483,188301,-443607
299,76775,E14-00705,CE2P06292865,8/26/2014,38.47,NEG,4,0,A,4,CDFA,1,8,2014,HLB,12,63,16340 Binney St,Hacienda Heights,CA,91745,Los Angeles,ML556,-117.950668,34.003494,189304,-443733
300,76842,E14-00772,CE2P06292110,9/9/2014,38.78,NEG,0,168,N,168,CDFA,1,9,2014,HLB,12,63,1533 Pontenova Ave,Hacienda Heights,CA,91745,Los Angeles,ML556,-117.96359,34.002031,188114,-443921
301,76984,E14-00914,FR0P06317467,10/9/2014,38.68,NEG,0,20,N,20,CDFA,1,10,2014,HLB,12,63,681 E Larry St,Farmersville,CA,93223,Tulare, ,-119.201209,36.298874,71644.60156,-190604
2178,276791,E17-39632,AM0P06807529,10/20/2017,38.7922287,INCON,0,0,A,0,CDFA, ,10,2017,ACP,12,63,2214 S Parton St,Santa Ana,CA,92707,Orange, ,-117.87417,33.71737,197081,-475302
2238,280409,E17-43252,AM0P06830867,11/9/2017,38.10996246,INCON,8,0,A,8,CDFA, ,11,2017,ACP,12,63,13582 Flower St,Garden Grove,CA,92843,Orange, ,-117.9533,33.76543,189631,-470136
1547,245671,E17-08179,RS0P06735176,3/28/2017,37.9344101,INCON,1,0,N,1,CDFA, ,3,2017,HLB,12,63,907 Arcadia Ave,Arcadia,CA,91007,Los Angeles, ,-118.060832,34.126928,178849,-430258
305,77260,E14-01190,SDAP06313193,12/15/2014,37.56,NEG,7,0,A,7,CDFA,1,12,2014,HLB,12,63,820 Jacaranda Pl,Escondido,CA,92026,San Diego, ,-117.08332,33.14705,272323,-536541
1472,237806,E17-00313,RS0P06674651,12/15/2016,37.91,INCON,2,0,A,2,CDFA,0,12,2016,HLB,12,63,3485 21st St,Highland,CA,92346,San Bernardino, ,-117.211288,34.134403,257159,-427475
307,77311,E14-01241,AM0P06230270,12/16/2014,38.75708008,NEG,15,0,A,15,CDFA,1,12,2014,HLB,12,63,5591 Lincoln Ave.,Cypress,CA, ,Orange,MH568,-118.03517,33.83201,181894,-462914
308,77404,E14-01335,SDAP06311557,12/17/2014,38.91,NEG,5,0,A,5,CDFA,1,12,2014,HLB,12,63,725 Brotherton Rd,Escondido,CA,92025,San Diego, ,-117.07997,33.09564,272811,-542225
309,78035,E14-01968,CE2P06291547,12/19/2014,37.18,NEG,2,0,A,2,CDFA,1,12,2014,HLB,12,63,1711 W Francisquito Ave,West Covina,CA,91790,Los Angeles, ,-117.957873,34.056665,188512,-437851
310,78111,E14-02044,CE2P06292341,12/26/2014,38.33,NEG,0,0,N,0,CDFA,1,12,2014,HLB,12,63,15437 Shadybend Dr,Hacienda Heights,CA,91745,Los Angeles, ,-117.971731,34.011318,187340,-442908
311,78427,E15-00070,CE2P06290800,1/2/2015,38.85374069,NEG,0,0,A,6,CDFA, ,1,2015,HLB,12,63,777 Larimore Ave,La Puente,CA,91744,Los Angeles, ,-117.942913,34.032683,189950,-440481
312,78706,E15-00349,RS0P06310203,12/18/2014,37.1836319,NEG,8,0,A,8,CDFA,1,12,2014,HLB,12,63,13875 Boeing St,Moreno Valley,CA,92553,Riverside, ,-117.269123,33.918951,252516,-451520
313,78790,E15-00433,SDAP06314223,1/6/2015,38.0439415,NEG,0,0,A,4,CDFA, ,1,2015,HLB,12,63,2121  Country Pl,Escondido,CA,92026,San Diego, ,-117.09494,33.15717,271204,-535454
314,79137,E15-00780,RS0P06309103,12/23/2014,39.38698196,NEG,3,0,A,3,CDFA,1,12,2014,HLB,12,63,13011 Gorham Street,Moreno Valley,CA,92553,Riverside, ,-117.25166,33.93214,254087,-450011
315,79304,E15-00948,CE2P06291016,1/12/2015,37.69364166,NEG,0,0,A,5,CDFA, ,1,2015,HLB,12,63,5351 Garypark Ave,Arcadia,CA,91006,Los Angeles, ,-118.019771,34.10282,182692,-432853
316,79993,E15-01638,CE2P06292179,1/15/2015,38.15408707,NEG,0,0,A,2,CDFA, ,1,2015,HLB,12,63,6247 Washington Ave,Whittier,CA,90601,Los Angeles, ,-118.035033,33.984911,181555,-445959
1565,247062,E17-09570,130P06729304,4/10/2017,37.89079666,INCON,30,0,N,30,CDFA, ,4,2017,HLB,12,63,1790 W. Hwy 98,Calexico,CA,92231,Imperial, ,-115.69164,32.68157,404528,-583099
318,80140,E15-01785,SDAP06311623,1/20/2015,39.37889862,NEG,0,0,A,13,CDFA, ,1,2015,HLB,12,63,602-04 Sirginson Rd,San Marcos,CA,92069,San Diego, ,-117.15747,33.15001,265392,-536424
319,80472,E15-02117,RS0P06308709,1/14/2015,39.3682251,NEG,0,0,A,5,CDFA, ,1,2015,HLB,12,63,1569 Red Sea Ave,Thermal,CA,92274,Riverside, ,-115.995859,33.334013,372930,-512135
320,80528,E15-02173,SDAP06286124,1/21/2015,38.67993546,NEG,0,0,A,1,CDFA, ,1,2015,HLB,12,63,1195 La Morre Rd  SPC# 76 Mobile Home Park,San Marcos,CA,92078,San Diego, ,-117.13271,33.12856,267775,-538730
321,80670,E15-02315,CE2P06292415,1/21/2015,39.05302048,NEG,0,0,A,3,CDFA, ,1,2015,HLB,12,63,7601 Washington Ave,Whittier,CA,90602,Los Angeles, ,-118.035012,33.973441,181583,-447231
322,80861,E15-02506,RS0P06331789,1/21/2015,39.77802277,NEG,0,0,A,4,CDFA, ,1,2015,HLB,12,63,230 E Lambert Rd,La Habra,CA,90631,Orange, ,-117.944519,33.924593,190062,-452471
323,80869,E15-02514,RS0P06331796,1/21/2015,37.52823639,NEG,0,0,A,5,CDFA, ,1,2015,HLB,12,63,1731 W Lambert Rd unit #82,La Habra,CA,90631,Orange, ,-117.965379,33.924688,188133,-452502
324,81684,E15-03329,RS0P06308188,1/27/2015,37.20719528,NEG,0,0,N,10,CDFA, ,1,2015,HLB,12,63,2540 Stanton Ave,La Habra,CA,90631,Orange, ,-117.975349,33.929604,187199,-451976
325,82048,E15-03693,CE2P06289255,1/30/2015,38.35134125,NEG,0,0,A,5,CDFA, ,1,2015,HLB,12,63,9269 Priscilla St,Downey,CA,90242,Los Angeles, ,-118.134339,33.911438,172541,-454292
326,82232,E15-03877,SDAP06312409,2/4/2015,38.81998062,NEG,0,0,A,2,CDFA, ,2,2015,HLB,12,63,10278  Royal Ann  Ave,San Diego,CA,92126,San Diego, ,-117.15074,32.90475,266837,-563565
1983,268292,E17-30840,CE2P06699315,8/30/2017,37.74110413,INCON,0,0,A,0,CDFA, ,8,2017,HLB,12,63,5308 Manzanar Ave,Pico Rivera,CA,90660,Los Angeles, ,-118.086227,33.997125,176798,-444701
328,83533,E15-05178,CE2P06235559,2/11/2015,39.15769959,NEG,0,0,N,40,CDFA, ,2,2015,HLB,12,63,13312 Flallon Ave,Norwalk,CA,90650,Los Angeles, ,-118.085316,33.910341,177076,-454324
329,83696,E15-05341,CE2P06291873,2/11/2015,39.03416443,NEG,0,0,A,1,CDFA, ,2,2015,HLB,12,63,5059 Pearce Ave,Lakewood,CA,90712,Los Angeles, ,-118.129892,33.850601,173085,-461030
330,84479,E15-06124,RS0P06308138,2/10/2015,37.92332459,NEG,0,0,A,1,CDFA, ,2,2015,HLB,12,63,3568 N Pershing Ave,San Bernardino,CA,92405,San Bernardino, ,-117.288463,34.155961,249976,-425291
331,84556,E15-06201,AM0P06230348,2/17/2015,38.44739532,NEG,0,0,A,1,CDFA, ,2,2015,HLB,12,63,7722 Pacific Ave,Buena Park,CA,90621,Orange, ,-117.99899,33.879,185132,-457634
332,85460,E15-07105,RS0P06309786,2/17/2015,38.79664993,NEG,0,0,N,0,CDFA, ,2,2015,HLB,12,63,1203 W 6th St Space#71,Corona,CA,92882,Riverside, ,-117.586587,33.87758,223284,-456903
333,85481,E15-07126,RSAP06296148,2/17/2015,39,NEG,0,0,N,25,CDFA, ,2,2015,HLB,12,63,2410 Harrison St,San Bernardino,CA,92404,San Bernardino, ,-117.264733,34.137511,252222,-427274
334,85681,E15-07329,SDAP06343941,2/24/2015,37.64593124,NEG,0,0,A,7,CDFA, ,2,2015,HLB,12,63,5176  Ave Palya Cancun,San Diego,CA,92124,San Diego, ,-117.08342,32.83852,273365,-570706
335,85744,E15-07392,CE2P06235435,2/23/2015,38.39531326,NEG,0,0,N,30,CDFA, ,2,2015,HLB,12,63,12346 Poinsettia Ave,El Monte,CA,91732,Los Angeles, ,-118.017918,34.053708,182976,-438297
2260,283362,E17-46207,AM0P06827480,11/28/2017,37.62050247,INCON,0,8,N,8,CDFA, ,11,2017,ACP,12,63,1326 E Banyan Ave,Anaheim,CA,92805,Orange, ,-117.902872,33.849436,194096,-460720
1022,168373,E16-03138,CE2P06511318,1/15/2016,37.08,INCON,0,0,A,10,CDFA, ,1,2016,HLB,12,63,4149 W 133rd St,Hawthorne,CA,90250,Los Angeles, ,-118.347849,33.911978,152796,-454599
338,87055,E15-08705,RI0P06334526,2/26/2015,37.88537979,NEG,0,0,A,20,CDFA, ,2,2015,HLB,12,63,864 Campus Way,San Bernardino,CA,92405,San Bernardino, ,-117.301791,34.133246,248819,-427845
339,87995,E15-09645,AM0P06255857,3/6/2015,37.44633484,NEG,0,0,A,4,CDFA, ,3,2015,HLB,12,63,2661 W Crescent Ave,Anaheim,CA,92801,Orange, ,-117.97896,33.8396,187078,-461963
340,88175,E15-09826,SDAP06313671,3/4/2015,37.02054214,NEG,0,0,A,7,CDFA, ,3,2015,HLB,12,63,334 Cananea St,Vista,CA,92084,San Diego, ,-117.24046,33.2184,257425,-529077
1170,184459,E16-19226,RV0P06533767,4/26/2016,37.08,INCON,0,0,A,9,CDFA, ,4,2016,ACP,12,30,"0.15 mi. N of Stetson Ave., 0.01 mi. W of Fairview",Hemet,CA, ,Riverside,OV573,-116.893395,33.73185,287926,-471189
342,88264,E15-09915,SDAP06312635,3/5/2015,38.2122345,NEG,0,0,A,4,CDFA, ,3,2015,HLB,12,63,9714  Dragoye  Dr,Santee,CA,92071,San Diego, ,-116.99242,32.85638,281829,-568462
343,88325,E15-09976,RSAP06296242,3/11/2015,39.76414108,NEG,0,0,N,10,CDFA, ,3,2015,HLB,12,63,1141 Goldfield Way,Heber,CA,92249,Imperial, ,-115.519802,32.733559,420379,-576601
344,88466,E15-10117,CE2P6350734,3/10/2015,37.53580856,NEG,0,0,A,10,CDFA, ,3,2015,HLB,12,63,4117 Broadway,Huntington Park,CA,90255,Los Angeles, ,-118.195688,33.963598,166758,-448618
345,88560,E15-10211,RI0P06334851,3/5/2015,38.79970932,NEG,0,0,N,0,CDFA, ,3,2015,HLB,12,63,3445 Strong St,Riverside,CA,92501,Riverside, ,-117.359017,33.998272,243960,-442961
346,89323,E15-10974,RI0P06334765,3/10/2015,37.67946243,NEG,0,0,N,60,CDFA, ,3,2015,HLB,12,63,222 S Rancho Ave  space 88,San Bernardino,CA,92410,San Bernardino, ,-117.333252,34.097264,246031,-431917
347,89490,E15-11143,CE2P6351267,3/16/2015,37.47001266,NEG,0,0,A,2,CDFA, ,3,2015,HLB,12,63,15042 Walbrook Dr,Hacienda Heights,CA,91745,Los Angeles, ,-117.97804,34.016895,186744,-442302
348,89904,E15-11560,AM0P06256015,3/18/2015,37.65424347,NEG,0,0,A,10,CDFA, ,3,2015,HLB,12,63,343 S Madrona Ave,Brea,CA,92821,Orange, ,-117.90347,33.91607,193878,-453333
349,90054,E15-11710,RI0P06335048,3/12/2015,37.6631012,NEG,0,0,N,7,CDFA, ,3,2015,HLB,12,63,3905 Twining St,Riverside,CA,92509,Riverside, ,-117.405484,33.994789,239680,-443465
350,90246,E15-11902,RI0P06334823,3/12/2015,38.72888947,NEG,0,0,A,8,CDFA, ,3,2015,HLB,12,63,27490 Fisher St,Highland,CA,92346,San Bernardino, ,-117.20473,34.126198,257790,-428367
351,90311,E15-11967,RI0P06335223,3/11/2015,38.78037643,NEG,0,0,A,17,CDFA, ,3,2015,HLB,12,63,1704 Central Ave,Highland,CA,92346,San Bernardino, ,-117.217593,34.12969,256593,-428015
302,76999,E14-00929,130P06283625,11/4/2014,37.06,INCON,2,0,A,2,CDFA, ,11,2014,ACP,12,63,146 Fawcett Rd.,Heber,CA,92249,Imperial,RZ640,-115.5228,32.72364,420150,-577711
353,92123,E15-13785,RI0P06335902,3/19/2015,37.16363907,NEG,0,0,N,50,CDFA, ,3,2015,HLB,12,63,13734 Woodlands St,Corona,CA,92880,Riverside, ,-117.5825,33.970398,223400,-446602
1155,181765,E16-16530,CE2P06547247,4/7/2016,37,INCON,0,0,A,11,CDFA, ,4,2016,HLB,12,63,10421 E Weaver St,South El Monte,CA,91733,Los Angeles, ,-118.045093,34.054852,180465,-438222
355,93136,E15-14800,RS0P06365842,3/25/2015,38.67715454,NEG,0,0,A,1,CDFA, ,3,2015,HLB,12,63,12047 Cactus Ave,Bloomington,CA,92316,San Bernardino, ,-117.383246,34.034771,241611,-438976
356,93315,E15-14979,SDAP06342957,4/1/2015,38.37877655,NEG,0,0,A,12,CDFA, ,4,2015,HLB,12,63,13327 Buena Vista St  Mobile Home Park,Poway,CA,92064,San Diego, ,-117.04192,32.95187,276862,-558035
1284,208497,E16-43275,SDAP06492453,8/16/2016,37,INCON,0,0,A,21,CDFA,1,8,2016,HLB,12,63,7816 Praire Shadow Rd.,San Diego,CA,92126,San Diego, ,-117.15536,32.92804,266327,-560999
358,95385,E15-17070,CE2P06357747,4/13/2015,37.55309296,NEG,0,0,N,8,CDFA, ,4,2015,HLB,12,63,1869 West Rd,La Habra Heights,CA,90631,Los Angeles, ,-117.986929,33.952597,186075,-449449
359,95422,E15-17107,CE2P06358274,4/14/2015,37.59393692,NEG,0,0,A,1,CDFA, ,4,2015,HLB,12,63,2048 Delores St,West Covina,CA,91792,Los Angeles, ,-117.900276,34.022876,193911,-441482
360,95444,E15-17129,CE2P06358506,4/13/2015,39.47,NEG,0,0,A,2,CDFA, ,4,2015,HLB,12,63,3824 S Forecastle Ave,West Covina,CA,91792,Los Angeles, ,-117.874306,34.008281,196345,-443047
361,95651,E15-17336,RV0P06251700,4/15/2015,39.53273773,NEG,0,0,A,25,CDFA, ,4,2015,ACP,12,30,"0.02 mi. E of E. La Cadena Dr., 0.02 mi. S of Cent",Riverside,CA, ,Riverside,NU555,-117.3419468,34.0150834,245485,-441052
362,96279,E15-17967,SDAP06342726,4/15/2015,38.31747055,NEG,0,0,A,8,CDFA, ,4,2015,HLB,12,63,12148 Bakman Ct,Lakeside,CA,92040,San Diego, ,-116.93002,32.86924,287628,-566851
363,96539,E15-18227,VN0P06375874,4/20/2015,38.62344742,NEG,0,0,A,11,CDFA, ,4,2015,HLB,12,63,10852 Longford St,Sylmar,CA,91342,Los Angeles, ,-118.36758,34.27838,150272,-413990
364,96830,E15-18520,SDAP06314027,4/21/2015,39.13645554,NEG,0,0,N,50,CDFA, ,4,2015,HLB,12,63,440 Sun and Shadow Dr,Borrego Spring,CA,92004,San Diego, ,-116.38743,33.25567,336810,-522276
365,96892,E15-18582,SDAP06343263,4/20/2015,39.30858231,NEG,0,0,A,2,CDFA, ,4,2015,HLB,12,63,1651 Donalorn Dr,Escondido,CA,92027,San Diego, ,-117.04903,33.12255,275608,-539156
366,98412,E15-20104,EC0P06230970,4/30/2015,37.45972824,NEG,0,0,A,75,CDFA, ,4,2015,ACP,12,63,2795 Calhoun Ave.,Salton City,CA,92275,Imperial,QW599,-115.98408,33.33165,374037,-512350
367,98632,E15-20324,RS0P06367510,4/28/2015,39,NEG,0,0,A,1,CDFA, ,4,2015,HLB,12,63,66455 Dillon Rd Sp#1,Desert Hot Springs,CA,92240,Riverside, ,-116.502589,33.924937,323341,-448528
368,99191,E15-20883,RS0P06365937,4/30/2015,38.35380936,NEG,0,0,A,3,CDFA, ,4,2015,HLB,12,63,11404 Tropic Ct,Moreno Valley,CA,92557,Riverside, ,-117.223686,33.95538,256597,-447359
369,99256,E15-20948,RS0P06367823,5/4/2015,38.37785721,NEG,0,0,A,1,CDFA, ,5,2015,HLB,12,63,1080 Raymond St,Upland,CA,91786,San Bernardino, ,-117.636969,34.091564,218032,-433293
370,99304,E15-20996,RS0P06366727,4/30/2015,37.96275711,NEG,0,0,A,2,CDFA, ,4,2015,HLB,12,63,686 N Clifford Ave,Rialto,CA,92376,San Bernardino, ,-117.375652,34.112011,242075,-430391
371,99420,E15-21112,CE2P06358971,5/6/2015,38.34140396,NEG,0,0,A,2,CDFA, ,5,2015,HLB,12,63,1315 S 7th Ave,Hacienda Heights,CA,91745,Los Angeles, ,-117.990177,34.016096,185625,-442414
372,100271,E15-21964,RV0P06250301,5/11/2015,39.15,NEG,0,0,A,3,CDFA, ,5,2015,ACP,12,30,"1.02 mi. N of Adams Dr., 0.12 mi. E of 76 Hwy.",Pauma Valley,CA, ,San Diego,OO600,-117.023698,33.35248,277173,-513613
373,100305,E15-21998,RV0P06250297,5/11/2015,39.07,NEG,0,0,A,4,CDFA, ,5,2015,ACP,12,30,"0.40 mi. N of HWY 76., 1.52 mi. E Pala Mission Rd.",Pauma Valley,CA, ,San Diego,OO599,-117.020953,33.35631,277416,-513181
374,100611,E15-22304,RV0P06251243,5/12/2015,37.22549057,NEG,0,0,A,1,CDFA, ,5,2015,ACP,12,30,"0.08 mi. N of San Pasqual Vallery Rd., 0.80 mi. NE",Escondido,CA, ,San Diego,OU618,-116.936983,33.09092,286182,-542327
375,100763,E15-22456,AM0P06230335,5/12/2015,38.23726273,NEG,0,0,N,50,CDFA, ,5,2015,HLB,12,63,6411 Weber Cir,Huntington Beach,CA,92647,Orange, ,-118.01669,33.72128,183861,-475155
376,102466,E15-24173,CE2P06393443,5/26/2015,39.54,NEG,0,0,A,9,CDFA,2,5,2015,HLB,12,63,5253 Everington St,Commerce,CA,90040,Los Angeles, ,-118.160379,34.005887,169930,-443865
377,102640,E15-24347,CE2P06393331,5/21/2015,37.04,NEG,0,0,A,2,CDFA,2,5,2015,HLB,12,63,179 W Chestnut Ave,San Gabriel,CA,91776,Los Angeles, ,-118.10212,34.085637,175133,-434915
378,102651,E15-24358,AM0P06256968,5/26/2015,38.51,NEG,0,0,N,65,CDFA, ,5,2015,HLB,12,63,2701 N River Trail Rd,Orange,CA,92865,Orange, ,-117.86217,33.83362,197902,-462389
379,102881,E15-24589,RS0P06366340,5/27/2015,39.02,NEG,0,0,N,4,CDFA, ,5,2015,HLB,12,63,2115 S Helen Ave,Ontario,CA,91762,San Bernardino, ,-117.679266,34.03503,214284,-439659
380,103698,E15-25409,CE2P06393476,6/2/2015,39.06,NEG,0,0,A,4,CDFA,2,6,2015,HLB,12,63,10734 Kalmia St,Los Angeles,CA,90059,Los Angeles, ,-118.231968,33.937982,163458,-451522
381,104258,E15-25969,RV0P06250448,6/4/2015,37.03,NEG,0,0,A,4,CDFA, ,6,2015,ACP,12,30,"0.52 mi. E of Lake Cir Dr., 0.01 mi. S of Lancaste",Fallbrook,CA, ,San Diego,OH603,-117.143285,33.31507,266165,-518100
382,104381,E15-26094,RSAP06296789,6/3/2015,38.55,NEG,0,0,N,70,CDFA, ,6,2015,HLB,12,63,4050 Bryant Ln,Chino,CA,91710,San Bernardino, ,-117.716799,34.032688,210825,-440002
383,104699,E15-26414,VN0P06376528,6/8/2015,39.1,NEG,0,0,A,6,CDFA,2,6,2015,HLB,12,63,1022 N Avenue St,Los Angeles,CA,90042,Los Angeles, ,-118.19908,34.11823,166118,-431474
384,105102,E15-26818,AM0P06257195,6/4/2015,38.06,NEG,0,0,A,2,CDFA, ,6,2015,HLB,12,63,3806 S Teakwood St,Santa Ana,CA,92707,Orange, ,-117.87144,33.69678,197385,-477579
385,105292,E15-27009,RV0P06249867,6/10/2015,38.11,NEG,0,0,A,1,CDFA, ,6,2015,ACP,12,30,"0.08 mi. W of San Gabriel Way., 0.09 mi. S of Pala",Valley Center,CA, ,San Diego,OK602,-117.099706,33.31734,270216,-517726
386,105301,E15-27018,RS0P06368660,6/4/2015,38.28,NEG,0,0,N,2,CDFA, ,6,2015,HLB,12,63,441 E Citron St,Corona,CA,92879,Riverside, ,-117.562776,33.861838,225532,-458592
387,106165,E15-27886,RSAP06297333,6/9/2015,38.65,NEG,0,0,N,40,CDFA, ,6,2015,HLB,12,63,25717 Mission Rd,Loma Linda,CA,92354,San Bernardino, ,-117.243194,34.058986,254461,-435924
388,106228,E15-27949,RS0P06369220,6/10/2015,38.03,NEG,0,0,A,3,CDFA, ,6,2015,HLB,12,63,142 Carmody Ct,Redlands,CA,92373,San Bernardino, ,-117.209747,34.042163,257602,-437699
765,139452,E15-61222,RS0P06418681,10/14/2015,36.99,INCON,0,0,N,40,CDFA,2,10,2015,HLB,12,63,213 E Reed St,Covina,CA,91723,Los Angeles, ,-117.887649,34.095038,194898,-433453
390,106878,E15-28599,CE2P06394326,6/15/2015,38.63,NEG,0,0,A,5,CDFA,2,6,2015,HLB,12,63,4539 Whitewood Ave,Long Beach,CA,90808,Los Angeles, ,-118.136132,33.840751,172529,-462134
923,154375,E15-76179,RV0P06387602,11/30/2015,36.99,INCON,0,0,A,12,CDFA, ,11,2015,ACP,12,30,"0.16 mi. S of Monte Verde., 0.11 mi. W of Los Caba",Temecula,CA, ,Riverside,ON591,-117.046356,33.4769,274634,-499895
392,107002,E15-28723,CE2P06394481,6/16/2015,37.61,NEG,0,0,A,12,CDFA,2,6,2015,HLB,12,63,621 W 113th St,Los Angeles,CA,90044,Los Angeles, ,-118.28565,33.931988,158508,-452278
393,107112,E15-28833,SDAP06370933,6/11/2015,37.01,NEG,0,0,A,1,CDFA,2,6,2015,HLB,12,63,1305  Fern Pl,Vista,CA,92081,San Diego, ,-117.24692,33.17308,256969,-534115
394,107208,E15-28929,RSAP06297259,6/16/2015,38.6,NEG,0,0,N,28,CDFA, ,6,2015,HLB,12,63,1318 Bottlebrush St,Corona,CA,92882,Riverside, ,-117.594637,33.862954,222581,-458544
1462,236578,E16-71370,AM0P06660119,12/19/2016,36.98628998,INCON,0,0,A,19,CDFA, ,12,2016,HLB,42,63,19114 Jacob Ave,Cerritos,CA,90703,Los Angeles, ,-118.07712,33.85682,177955,-460243
396,107470,E15-29192,AM0P06257990,6/18/2015,37.08,NEG,0,0,A,2,CDFA, ,6,2015,HLB,12,63,9891 Newcastle Ave,Westminster,CA,92683,Orange, ,-117.95663,33.74907,189361,-471956
397,107494,E15-29216,AM0P06257939,6/22/2015,37.7,NEG,0,0,A,2,CDFA, ,6,2015,HLB,12,63,18951 Crimson Cir,Huntington Beach,CA,92646,Orange, ,-117.98181,33.6874,187174,-478843
398,107506,E15-29228,RV0P06250535,6/23/2015,37.21,NEG,0,0,A,2,CDFA, ,6,2015,ACP,12,30,"0.10 mi. E of Torrey Rd., 0.12 mi. N end of Howe R",Fillmore,CA, ,Ventura,KP530,-118.792816,34.40173,110955,-400890
1580,247480,E17-09988,RV0P06634149,4/17/2017,36.97759628,INCON,5,0,N,5,CDFA, ,4,2017,ACP,12,30,"0.22 mi. S of Florida Ave., 0.10 mi. W of Blackbur",Hemet,CA, ,Riverside,OX573,-116.850581,33.73823,291869,-470351
400,107552,E15-29274,RV0P06249885,6/24/2015,37.94,NEG,0,0,N,20,CDFA, ,6,2015,ACP,12,30,"0.01 mi. N of Keys Creek Rd., 0.86 mi. E of Dowlin",Valley Center,CA, ,San Diego,OM604,-117.054985,33.29298,274466,-520296
401,107579,E15-29301,RSAP06297050,6/17/2015,37.22,NEG,0,0,A,2,CDFA, ,6,2015,HLB,12,63,34913 Avenue B,Yucaipa,CA,92399,San Bernardino, ,-117.042969,34.031723,273031,-438390
402,107821,E15-29544,AM0P06257683,6/23/2015,37.51,NEG,0,0,A,4,CDFA, ,6,2015,HLB,12,63,18262 Hartlund Ln,Huntington Beach,CA,92646,Orange, ,-117.98258,33.69718,187079,-477760
403,107828,E15-29552,AM0P06257678,6/23/2015,37.95,NEG,0,0,A,10,CDFA, ,6,2015,HLB,12,63,8041 Taylor Dr,Huntington Beach,CA,92646,Orange, ,-117.98786,33.69745,186589,-477741
404,107888,E15-29612,CE2P06394239,6/22/2015,37.33,NEG,0,0,A,1,CDFA, ,6,2015,HLB,12,63,1159 Kwis Ave,Hacienda Heights,CA,91745,Los Angeles, ,-117.97024,34.01118,187478,-442920
405,108200,E15-29924,SDAP06370924,6/17/2015,38.63,NEG,0,0,A,3,CDFA,2,6,2015,HLB,12,63,1722 Kraft St,Oceanside,CA,92058,San Diego, ,-117.36956,33.20935,245413,-530422
406,108315,E15-30039,AM0P06258125,6/25/2015,38.88,NEG,0,0,A,1,CDFA, ,6,2015,HLB,12,63,4482 Parkglen Cir,Irvine,CA,92604,Orange, ,-117.78487,33.69671,205412,-477403
407,108500,E15-30224,RSAP06297595,6/23/2015,38.87,NEG,0,0,N,10,CDFA, ,6,2015,HLB,12,63,901 W Pottery St,Lake Elsinore,CA,92530,Riverside, ,-117.335132,33.676007,247171,-478624
1625,249321,E17-11829,RS0P06665938,5/1/2017,36.9739418,INCON,0,5,N,5,CDFA, ,5,2017,HLB,12,63,25734 Van Leuven St,Loma Linda,CA,92354,San Bernardino, ,-117.243039,34.055748,254486,-436283
786,141140,E15-62915,RS0P06466191,10/15/2015,36.96,INCON,0,0,N,60,CDFA,2,10,2015,HLB,12,63,533 E Spruce St,Ontario,CA,91761,San Bernardino, ,-117.64474,34.035078,217471,-439575
410,109109,E15-30833,CE2P06395273,6/30/2015,37.32,NEG,0,0,A,4,CDFA,2,6,2015,HLB,12,63,1959 W 78th St,Los Angeles,CA,90047,Los Angeles, ,-118.313179,33.969108,155889,-448207
411,109156,E15-30880,CE2P06394890,6/25/2015,37.45,NEG,0,0,N,28,CDFA,2,6,2015,HLB,12,63,5625 S Harcourt Ave,Los Angeles,CA,90043,Los Angeles, ,-118.341003,33.99096,153276,-445829
412,109301,E15-31025,RSAP06297675,6/23/2015,39.65,NEG,0,0,A,35,CDFA,2,6,2015,HLB,12,63,28173 Chula Vista Dr,Sun City,CA,92586,Riverside, ,-117.183709,33.711833,261093,-474248
413,109433,E15-31157,RS0P06406905,6/25/2015,38.88,NEG,0,0,A,1,CDFA,2,6,2015,HLB,12,63,29490 Pebble Beach Dr,Sun City,CA,92586,Riverside, ,-117.192059,33.695178,260374,-476117
414,109642,E15-31366,CEAP06208367,7/13/2015,37.74,NEG,0,0,N,60,CDFA, ,7,2015,HLB,12,63,232 W Chestnut Ave,San Gabriel,CA,91776,Los Angeles, ,-118.104089,34.085563,174952,-434926
415,109654,E15-31378,RS0P06406085,7/1/2015,39.47,NEG,0,0,N,40,CDFA, ,7,2015,HLB,12,63,23582 Cheyenne Canyon Dr,Menifee,CA,92587,Riverside, ,-117.247908,33.694668,255199,-476325
416,109927,E15-31655,SDAP06372325,6/29/2015,37.97,NEG,0,0,A,6,CDFA,2,6,2015,HLB,42,63,4704 Guymon St,San Diego,CA,92102,San Diego, ,-117.09298,32.71228,272898,-584708
417,109962,E15-31692,VN0P06377094,7/2/2015,38.11,NEG,0,0,A,1,CDFA,2,7,2015,HLB,12,63,1038 S Plymouth Blvd,Los Angeles,CA,90019,Los Angeles, ,-118.32706,34.05474,154439,-438732
418,109969,E15-31699,VN0P06376460,7/2/2015,39.5,NEG,0,0,A,8,CDFA,2,7,2015,HLB,12,63,202 S Sloan ave,Compton,CA,90221,Los Angeles, ,-118.2104,33.89715,165537,-456012
419,109970,E15-31700,VN0P06376459,7/2/2015,38.91,NEG,0,0,A,10,CDFA,2,7,2015,HLB,12,63,1804 San Marcus St,Compton,CA,90221,Los Angeles, ,-118.20358,33.89769,166167,-455941
498,113395,E15-35143,AM0P06258618,7/21/2015,36.95,INCON,0,0,A,3,CDFA, ,7,2015,HLB,12,63,4871 Flagstar Cir,Irvine,CA,92604,Orange, ,-117.78042,33.69217,205836,-477897
421,110014,E15-31747,AM0P06258399,7/6/2015,38.43,NEG,0,0,A,3,CDFA, ,7,2015,HLB,12,63,9 Calhoun,Irvine,CA,92620,Orange, ,-117.76484,33.7069,207242,-476230
422,110056,E15-31789,RV0P06249933,7/6/2015,39.26,NEG,0,0,A,3,CDFA, ,7,2015,ACP,12,30,"0.13 mi. S of Cole Grade Ln., 0.67 mi. W of Miller",Valley Center,CA, ,San Diego,ON606,-117.038926,33.25792,276083,-524133
1415,231248,E16-66039,VN0P06516782,11/22/2016,36.95,INCON,0,0,A,6,CDFA,1,11,2016,HLB,12,63, 22609 Napa St,Chatsworth,CA,91304,Los Angeles, ,-118.61971,34.226,127148,-420170
1581,247504,E17-10012,RS0P06736688,4/10/2017,36.94977188,INCON,3,0,N,3,CDFA, ,4,2017,HLB,42,63,1353 N Shelley Ave,Upland,CA,91786,San Bernardino, ,-117.647442,34.112561,217008,-430988
425,110151,E15-31884,RSAP06297256,6/30/2015,38.65,NEG,0,0,N,11,CDFA,2,6,2015,HLB,12,63,1999 Jenna Cir,Corona,CA,92881,Riverside, ,-117.545216,33.854201,227178,-459397
426,110152,E15-31885,RS0P06368727,6/30/2015,39.12,NEG,0,0,N,1,CDFA,2,6,2015,HLB,12,63,1125 Elliot Dr,Corona,CA,92881,Riverside, ,-117.543799,33.851999,227315,-459638
427,110153,E15-31886,RS0P06406555,7/1/2015,38.11,NEG,0,0,N,20,CDFA,2,7,2015,HLB,12,63,40724 Pocona Pl,Murrieta,CA,92562,Riverside, ,-117.19647,33.565524,260390,-490498
428,110154,E15-31887,RS0P06407092,7/1/2015,37.88,NEG,0,0,N,55,CDFA,2,7,2015,HLB,12,63,30714 Wavecrest Cir,Menifee,CA,92584,Riverside, ,-117.154387,33.674411,263936,-478314
689,132342,E15-54105,RS0P06460793,9/24/2015,36.94,INCON,0,0,A,20,CDFA,2,9,2015,HLB,12,63,3930 Rockingham Pl,Riverside,CA,92504,Riverside, ,-117.421752,33.937511,238350,-449857
430,110232,E15-31967,RS0P06406956,7/2/2015,37.34,NEG,0,0,A,1,CDFA,2,7,2015,HLB,12,63,29887 Redwood Dr,Canyon Lake,CA,92587,Riverside, ,-117.263522,33.686952,253776,-477222
431,110242,E15-31977,RSAP06297234,7/1/2015,38.2,NEG,0,0,N,10,CDFA,2,7,2015,HLB,12,63,2370 Oak Ave,Corona,CA,92882,Riverside, ,-117.592142,33.856177,222831,-459289
904,152970,E15-74771,CE2P06483157,11/23/2015,36.94,INCON,0,0,A,11,CDFA,2,11,2015,HLB,12,63,2243 Gatewood St,Los Angeles,CA,90031,Los Angeles, ,-118.233149,34.087672,163039,-434922
433,110245,E15-31980,RSAP06297913,7/1/2015,38.8,NEG,0,0,A,2,CDFA,2,7,2015,HLB,12,63,24317 Main St,Perris,CA,92570,Riverside, ,-117.284263,33.766739,251599,-468434
434,110249,E15-31984,RS0P06416804,7/1/2015,37.59,NEG,0,0,A,9,CDFA,2,7,2015,HLB,12,63,31288 Southampton Ct,Menifee,CA,92584,Riverside, ,-117.164347,33.666941,263037,-479170
435,110276,E15-32011,RSAP06297539,7/1/2015,38.15,NEG,0,0,N,12,CDFA,2,7,2015,HLB,12,63,25258 Red Fern Cir,Menifee,CA,92584,Riverside, ,-117.221213,33.687825,257695,-477011
1049,170839,E16-05604,SDAP06487989,1/14/2016,36.94,INCON,0,0,A,6,CDFA, ,1,2016,HLB,12,63,32921 Rovato Street,Temecula,CA,92592,Riverside, ,-117.08485,33.48508,271028,-499099
437,110335,E15-32070,RSAP06297255,6/30/2015,37.63,NEG,0,0,N,28,CDFA,2,6,2015,HLB,12,63,2031-2033 California Ave,Corona,CA,92881,Riverside, ,-117.539043,33.852374,227754,-459585
438,110337,E15-32072,RS0P06406949,6/30/2015,39.31,NEG,0,0,A,6,CDFA,2,6,2015,HLB,12,63,22358 Whirlaway Ct,Canyon Lake,CA,92587,Riverside, ,-117.27005,33.692383,253153,-476638
439,110345,E15-32080,RV0P06249944,7/7/2015,38.19,NEG,0,0,A,4,CDFA, ,7,2015,ACP,12,30,"0.00 mi. S of Cool Valley Rd., 0.59 mi. W of Cole",Valley Center,CA, ,San Diego,OO606,-117.033663,33.26534,276548,-523295
440,110419,E15-32154,CE2P06395365,7/6/2015,38.1,NEG,0,0,A,2,CDFA,2,7,2015,HLB,12,63,8416 S 2nd Ave,Inglewood,CA,90305,Los Angeles, ,-118.318781,33.961601,155386,-449048
441,110481,E15-32216,VN0P06377163,7/7/2015,38.51,NEG,0,0,N,5,CDFA,2,7,2015,HLB,12,63,1817 W 48th St,Los Angeles,CA,90062,Los Angeles, ,-118.31101,34.00024,156028,-444751
442,110555,E15-32291,CE2P06394173,7/6/2015,39.3,NEG,0,0,A,3,CDFA,2,7,2015,HLB,12,63,2219 Termino Ave,Long Beach,CA,90815,Los Angeles, ,-118.145333,33.79676,171773,-467028
988,163655,E15-85469,VN0P06378099,12/22/2015,36.93,INCON,0,0,A,11,CDFA,2,12,2015,HLB,12,63,8110 Jumilla,Reseda,CA,91306,Los Angeles, ,-118.56,34.21713,132663,-421072
444,110873,E15-32609,SDAP06371314,7/8/2015,37.58,NEG,0,0,N,25,CDFA,2,7,2015,HLB,12,63,4632 Maple Dr,Oceanside,CA,92056,San Diego, ,-117.27058,33.21034,254642,-530052
445,111225,E15-32963,AM0P06258230,7/13/2015,39.86,NEG,0,0,A,3,CDFA, ,7,2015,HLB,12,63,336 Heartwood Cir,Brea,CA,92821,Orange, ,-117.87461,33.92365,196527,-452433
446,111254,E15-32992,RS0P06416727,7/7/2015,38.51,NEG,0,0,A,4,CDFA,2,7,2015,HLB,12,63,29815 Camino Cristal,Menifee,CA,92584,Riverside, ,-117.15502,33.688978,263828,-476701
447,111443,E15-33181,RS0P06416870,7/7/2015,38.76,NEG,0,0,N,6,CDFA,2,7,2015,HLB,12,63,43547 Nola St,Hemet,CA,92544,Riverside, ,-116.902467,33.75626,286997,-468511
448,111538,E15-33276,RSAP06297921,7/6/2015,38.36,NEG,0,0,A,1,CDFA,2,7,2015,HLB,12,63,356 W 3rd St,Perris,CA,92570,Riverside, ,-117.233779,33.783399,256221,-466452
449,111629,E15-33367,CE2P06395397,7/9/2015,39.13,NEG,0,0,N,12,CDFA, ,7,2015,HLB,12,63,14470 Frankton Ave,Hacienda Heights,CA,91745,Los Angeles, ,-117.992983,34.015814,185367,-442451
450,111633,E15-33371,CE2P06395392,7/9/2015,37.58,NEG,0,0,A,2,CDFA, ,7,2015,HLB,12,63,1333 Ameluxen Ave,Hacienda Heights,CA,91745,Los Angeles, ,-117.993315,34.016819,185334,-442340
451,111666,E15-33404,CE2P06395350,7/8/2015,38.36,NEG,0,0,N,7,CDFA,2,7,2015,HLB,12,63,5859 West Blvd,Los Angeles,CA,90043,Los Angeles, ,-118.335232,33.987741,153815,-446176
1053,170958,E16-05723,RS0P06531929,1/11/2016,36.93,INCON,0,0,A,20,CDFA,1,1,2016,HLB,12,63,25305 Paloma Rd,San Bernardino,CA,92410,San Bernardino, ,-117.252209,34.119403,253435,-429249
453,111727,E15-33465,RV0P06249412,7/14/2015,39.4,NEG,0,0,A,1,CDFA, ,7,2015,ACP,12,30,"0.33 mi. NW of Linda Rosea Rd., 0.19 mi. S of Paub",Temecula,CA, ,Riverside,ON589,-117.039015,33.51282,275192,-495893
454,111799,E15-33537,CE2P06397738,7/17/2015,39.06,NEG,0,0,N,9,CDFA, ,7,2015,HLB,12,63,420 W Chestnut Ave,San Gabriel,CA,91776,Los Angeles, ,-118.1064,34.085553,174739,-434932
515,114311,E15-36061,RS0P06421456,7/21/2015,36.92,INCON,0,0,A,6,CDFA,2,7,2015,HLB,12,63,410 W 8th St,Perris,CA,92570,Riverside, ,-117.235089,33.778368,256116,-467013
456,111888,E15-33629,CE2P06396819,7/14/2015,37.43,NEG,0,0,A,2,CDFA, ,7,2015,HLB,12,63,1301 Euclid Ave,San Gabriel,CA,91776,Los Angeles, ,-118.0963,34.08434,175673,-435048
457,111976,E15-33722,VN0P06377775,7/15/2015,37.91,NEG,0,0,A,10,CDFA,2,7,2015,HLB,12,63,4617 Richelieu Pl,Los Angeles,CA,90032,Los Angeles, ,-118.18376,34.07241,167629,-436529
458,112086,E15-33832,RV0P06249422,7/15/2015,38.24,NEG,0,0,A,2,CDFA, ,7,2015,ACP,12,30,"0.10 mi. N of Pauba Rd., 0.01 mi. W of Calle Conte",Temecula,CA, ,Riverside,OM588,-117.061858,33.51944,273047,-495226
459,112088,E15-33834,RV0P06248957,7/15/2015,38.16,NEG,0,0,A,4,CDFA, ,7,2015,ACP,12,30,"0.01 mi S of El Sobrante Rd., 0.01 mi. W Of Vista",Riverside,CA, ,Riverside,NQ566,-117.416248,33.85799,239099,-458660
460,112102,E15-33848,SDAP06409516,7/15/2015,38.44,NEG,0,0,A,2,CDFA,2,7,2015,HLB,12,63,5050  Faber Way,San Diego,CA,92115,San Diego, ,-117.08091,32.77029,273833,-578252
461,112103,E15-33849,RV0P06249970,7/15/2015,38.49,NEG,0,0,A,3,CDFA, ,7,2015,ACP,12,30,"0.09 mi. W of Pauma Alta Dr., 0.01 mi. N of Tyler",Valley Center,CA, ,San Diego,OP604,-117.01622,33.28572,278102,-520987
462,112111,E15-33857,RV0P06249972,7/15/2015,39.25,NEG,0,0,A,3,CDFA, ,7,2015,ACP,12,30,"0.01 mi. W of Cobb Ln., 0.46 mi. S of Valley Cente",Valley Center,CA, ,San Diego,OQ609,-116.991805,33.22164,280603,-528013
463,112117,E15-33863,SDAP06287489,7/14/2015,39.44,NEG,0,0,N,6,CDFA,2,7,2015,HLB,12,63,3262 Roberta Ln,Oceanside,CA,92054,San Diego, ,-117.3435,33.21363,247831,-529880
464,112119,E15-33865,SDAP06287488,7/14/2015,37.4,NEG,0,0,N,12,CDFA,2,7,2015,HLB,12,63,1346 Ealdean Ln,Oceanside,CA,92054,San Diego, ,-117.3383,33.19549,248372,-531876
465,112144,E15-33890,RS0P06406969,7/7/2015,38.03,NEG,0,0,A,2,CDFA,2,7,2015,HLB,12,63,1330 Beringer Dr,San Jacinto,CA,92583,Riverside, ,-116.939452,33.763673,283545,-467800
466,112148,E15-33894,RS0P06416904,7/8/2015,38.48,NEG,0,0,N,35,CDFA,2,7,2015,HLB,12,63,1477 Malaga Dr,San Jacinto,CA,92583,Riverside, ,-116.974501,33.807217,280145,-463078
467,112176,E15-33922,RS0P06369175,7/8/2015,38.25,NEG,0,0,A,3,CDFA,2,7,2015,HLB,12,63,28115 Greenwald Ave,Perris,CA,92570,Riverside, ,-117.292792,33.71272,250980,-474444
468,112193,E15-33939,RV0P06251643,7/16/2015,37.09,NEG,0,0,A,4,CDFA, ,7,2015,ACP,12,30,"0.39 mi. E of Castile Canyon Rd., 1.22 mi. N of Sa",Hemet,CA, ,Riverside,OV570,-116.889231,33.78041,288135,-465794
469,112194,E15-33940,RV0P06249452,7/16/2015,37.39,NEG,0,0,A,3,CDFA, ,7,2015,ACP,12,30,"0.12 mi. S of Oro, 0.12 mi. E of Via Cordova",Temecula,CA, ,Riverside,OP587,-116.996168,33.54314,279067,-492408
523,114713,E15-36463,VN0P06377561,7/28/2015,36.92,INCON,0,0,A,3,CDFA,2,7,2015,HLB,12,63,4076 Van Buren Pl,Culver City,CA,90232,Los Angeles, ,-118.39005,34.02148,148687,-442522
471,112219,E15-33965,RS0P06407325,7/8/2015,38.17,NEG,0,0,N,13,CDFA,2,7,2015,HLB,12,63,1834 Springtree Dr,Perris,CA,92571,Riverside, ,-117.224683,33.805911,256991,-463932
472,112233,E15-33979,RS0P06407027,7/8/2015,37.97,NEG,0,0,N,2,CDFA,2,7,2015,HLB,12,63,30196 Corte Cantera,Temecula,CA,92591,Riverside, ,-117.134579,33.519313,266292,-495447
1409,230006,E16-64796,CE2P06649729,11/10/2016,36.91860199,INCON,0,0,N,8,CDFA,1,11,2016,HLB,12,63,526 Chestnut Ave,Los Angeles,CA,90042,Los Angeles, ,-118.173241,34.116158,168506,-431658
474,112332,E15-34080,CE2P06397011,7/16/2015,39.84,NEG,0,0,N,7,CDFA, ,7,2015,HLB,12,63,1230 Euclid Ave,San Gabriel,CA,91776,Los Angeles, ,-118.09673,34.08496,175632,-434980
475,112360,E15-34108,CEAP06208426,7/16/2015,37.31,NEG,0,0,N,1,CDFA, ,7,2015,HLB,12,63,1116 Palm Ave,San Gabriel,CA,91776,Los Angeles, ,-118.097966,34.087291,175513,-434723
476,112367,E15-34115,CE2P06424826,7/17/2015,38.9,NEG,0,0,A,8,CDFA, ,7,2015,HLB,12,63,1105 S California St,San Gabriel,CA,91776,Los Angeles, ,-118.093292,34.087751,175943,-434664
452,111725,E15-33463,RV0P06249405,7/14/2015,36.91,INCON,0,0,A,1,CDFA, ,7,2015,ACP,12,30,"0.16 mi. E of El Mirador Corte., 0.17 mi. SE of An",Temecula,CA, ,Riverside,OM592,-117.04918,33.46998,274396,-500670
478,112461,E15-34209,VNAP06422215,7/16/2015,39.47,NEG,0,0,N,35,CDFA, ,7,2015,HLB,12,63,117 E Grand Ave,San Gabriel,CA,91776,Los Angeles, ,-118.09867,34.091669,175438,-434239
1704,252733,E17-15247,RS0P06736736,5/23/2017,36.9094429,INCON,3,0,N,3,CDFA, ,5,2017,HLB,12,63,635 N Acacia Ave,Rialto,CA,92376,San Bernardino, ,-117.361627,34.11141,243370,-430422
480,112546,E15-34294,CE2P06425184,7/19/2015,39.44,NEG,0,0,N,40,CDFA, ,7,2015,HLB,12,63,1028 S Ramona St,San Gabriel,CA,91776,Los Angeles, ,-118.107717,34.088671,174610,-434588
481,112563,E15-34311,VN0P06377863,7/19/2015,39.71,NEG,0,0,A,18,CDFA, ,7,2015,HLB,12,63,1402 Palm Ave Apt E,San Gabriel,CA,91776,Los Angeles, ,-118.097406,34.083101,175574,-435187
482,112619,E15-34367,CE2P06424956,7/20/2015,38.76,NEG,0,0,N,40,CDFA, ,7,2015,HLB,12,63,815 King St,San Gabriel,CA,91776,Los Angeles, ,-118.10323,34.09232,175016,-434175
483,112653,E15-34401,CE2P06425309,7/20/2015,38.12,NEG,0,0,A,2,CDFA, ,7,2015,HLB,12,63,1241 S California St,San Gabriel,CA,91776,Los Angeles, ,-118.09335,34.08482,175944,-434989
484,112656,E15-34404,CE2P06424776,7/20/2015,39.36,NEG,0,0,A,26,CDFA, ,7,2015,HLB,12,63,1030 Abbot Ave,San Gabriel,CA,91776,Los Angeles, ,-118.1032,34.08878,175027,-434568
485,112680,E15-34428,CE2P06397514,7/20/2015,38.98,NEG,0,0,A,2,CDFA, ,7,2015,HLB,12,63,1140 Lafayette St,San Gabriel,CA,91776,Los Angeles, ,-118.094396,34.086491,175844,-434805
486,112753,E15-34501,AM0P06230599,7/16/2015,38.59,NEG,0,0,N,2,CDFA, ,7,2015,HLB,12,63,26022 Red Corral Rd,Laguna Hills,CA,92653,Orange, ,-117.68642,33.58466,214842,-489605
487,112845,E15-34593,RSAP06297863,7/9/2015,39.12,NEG,0,0,A,5,CDFA,2,7,2015,HLB,12,63,42037 Sweet Shade Ln,Temecula,CA,92591,Riverside, ,-117.124745,33.513624,267225,-496050
488,113045,E15-34793,RS0P06416892,7/13/2015,37.16,NEG,0,0,N,40,CDFA,2,7,2015,HLB,12,63,30071 Puerta Vallarta Way,Menifee,CA,92584,Riverside, ,-117.203112,33.68427,259385,-477356
489,113183,E15-34931,RV0P06250004,7/21/2015,38.98,NEG,0,0,A,2,CDFA, ,7,2015,ACP,12,30,"0.00 mi. S of W Lilac Rd., 0.08 mi. E of Lilac Hil",Valley Center,CA, ,San Diego,OK606,-117.104728,33.27004,269909,-522980
490,113194,E15-34942,RV0P06249990,7/20/2015,38.38,NEG,0,0,A,2,CDFA, ,7,2015,ACP,12,30,"0.01 mi. N of Lake Wohlford Ln., 0.16 mi. E of N L",Valley Center,CA, ,San Diego,OS609,-116.968825,33.2177,282759,-528381
491,113195,E15-34943,RV0P06249991,7/20/2015,38.93,NEG,0,0,A,7,CDFA, ,7,2015,ACP,12,30,"0.01 mi. S of Faraway Pl., 0.14 mi. E of Cole Grad",Valley Center,CA, ,San Diego,OO606,-117.021006,33.26351,277734,-523461
1309,210724,E16-45503,LM0P06604043,8/24/2016,36.89095306,INCON,0,0,A,1,CDFA,1,8,2016,ACP,11,63,5885 Casitas Pass Rd,Carpinteria,CA,93013,Santa Barbara, ,-119.496884,34.404463,46241.89844,-401171
1059,171321,E16-06086,AM0P06267880,1/26/2016,36.89,INCON,0,0,A,5,CDFA, ,1,2016,HLB,12,63,34021 Corktree Rd,Lake Elsinore,CA,92532,Riverside, ,-117.234,33.65641,256612,-480528
1158,182732,E16-17497,RS0P06570258,4/11/2016,36.89,INCON,0,0,N,0,CDFA, ,4,2016,HLB,12,63,1034 Grandview Ave,Rosemead,CA,91770,Los Angeles, ,-118.091103,34.042335,176247,-439697
495,113289,E15-35037,RSAP06297856,7/16/2015,38.07,NEG,0,0,A,4,CDFA,2,7,2015,HLB,12,63,34806 The Farm Rd,Wildomar,CA,92595,Riverside, ,-117.22482,33.620928,257578,-484435
496,113381,E15-35129,AM0P06258577,7/21/2015,38.26,NEG,0,0,A,6,CDFA, ,7,2015,HLB,12,63,26511 Maside,Mission Viejo,CA,92692,Orange, ,-117.65501,33.57779,217777,-490295
497,113383,E15-35131,AM0P06258678,7/21/2015,39.48,NEG,0,0,A,2,CDFA, ,7,2015,HLB,12,63,6915 E Magdalena Dr,Orange,CA,92867,Orange, ,-117.7803,33.82469,205503,-463205
1675,251012,E17-13520,RS0P06614450,5/17/2017,36.88757324,INCON,0,6,N,6,CDFA, ,5,2017,HLB,12,63,2501 E. South  St.,Anaheim,CA,92806,Orange, ,-117.880404,33.83299,196216,-462497
499,113421,E15-35169,RS0P06416691,7/15/2015,39.69,NEG,0,0,A,6,CDFA,2,7,2015,HLB,12,63,45349 Tejon Ct,Temecula,CA,92592,Riverside, ,-117.118407,33.462607,267985,-501685
743,137535,E15-59304,CEAP06433603,10/8/2015,36.88,INCON,0,0,N,40,CDFA,2,10,2015,HLB,12,63,11407 Corby Ave,Norwalk,CA,90650,Los Angeles, ,-118.082803,33.927691,177270,-452395
501,113575,E15-35324,CE2P06358307,7/15/2015,38.24,NEG,0,0,A,3,CDFA,2,7,2015,HLB,12,63,5603 E. Spring St.,Long Beach,CA,90808,Los Angeles, ,-118.12301,33.81086,173809,-465424
502,113645,E15-35394,CE2P06395432,7/14/2015,38.1,NEG,0,0,A,3,CDFA,2,7,2015,HLB,12,63,2384 N. Pasadena Ave.,Long Beach,CA,90806,Los Angeles, ,-118.18602,33.80044,167997,-466693
503,113709,E15-35458,RS0P06417617,7/20/2015,38.96,NEG,0,0,N,6,CDFA,2,7,2015,HLB,12,63,1160 Leslie Dr,Hemet,CA,92543,Riverside, ,-116.960009,33.736018,281739,-470927
504,113780,E15-35529,RS0P06367989,7/13/2015,38.07,NEG,0,0,N,10,CDFA,2,7,2015,HLB,12,63,"1250 N Kirby St, Sp#78",Hemet,CA,92545,Riverside, ,-116.997937,33.768001,278113,-467494
505,113785,E15-35534,RS0P06367983,7/13/2015,39.22,NEG,0,0,N,11,CDFA,2,7,2015,HLB,12,63,"4400 W Florida Ave,Sp#25",Hemet,CA,92545,Riverside, ,-117.017696,33.744397,276366,-470168
506,113801,E15-35550,RSAP06297555,7/15/2015,38.63,NEG,0,0,A,26,CDFA,2,7,2015,HLB,12,63,41431 Vicky Ln,Hemet,CA,92544,Riverside, ,-116.938139,33.728773,283792,-471665
507,113803,E15-35552,RS0P06416735,7/15/2015,37.9,NEG,0,0,N,1,CDFA,2,7,2015,HLB,12,63,41939 Crest Dr,Hemet,CA,92544,Riverside, ,-116.92961,33.722973,284603,-472282
508,113929,E15-35679,AM0P06258696,7/24/2015,39.12,NEG,0,0,A,4,CDFA, ,7,2015,HLB,12,63,320 Kalmus Dr,Costa Mesa,CA,92626,Orange, ,-117.87702,33.67257,196928,-480275
509,113987,E15-35737,RV0P06250011,7/23/2015,37.81,NEG,0,0,A,1,CDFA, ,7,2015,ACP,12,30,"0.00 mi. N of Avenida Del Oro., 0.22 mi. SE of Not",Temecula,CA, ,Riverside,OD590,-117.204475,33.49592,259875,-498233
510,114035,E15-35785,SDAP06371238,7/23/2015,38.97,NEG,0,0,N,9,CDFA,2,7,2015,HLB,12,63,3205 Brookside Ln,Encinitas,CA,92024,San Diego, ,-117.21706,33.0536,260144,-547266
1677,251049,E17-13557,RV0P06634199,5/17/2017,36.87553787,INCON,3,0,N,3,CDFA, ,5,2017,ACP,12,30,"x0.00 mi. W of Marshall Ave., 0.07 mi. S of Idylwi",Hemet,CA, ,Riverside,OX573,-116.86284,33.74317,290715,-469841
512,114250,E15-36000,VN0P06377975,7/27/2015,37.24,NEG,0,0,A,4,CDFA,2,7,2015,HLB,12,63,451 W Cherry St,Compton,CA,90222,Los Angeles, ,-118.23236,33.90411,163492,-455279
513,114255,E15-36005,RV0P06248993,7/27/2015,37.85,NEG,0,0,A,2,CDFA, ,7,2015,ACP,12,30,"1.04 mi. E of Gypsum Canyon Rd., 0.24 mi. N of 91",Yorba Linda,CA, ,Orange,NA565,-117.695458,33.87729,213214,-457186
514,114296,E15-36046,RS0P06416939,7/21/2015,38.41,NEG,0,0,N,30,CDFA,2,7,2015,HLB,12,63,816 San Marcos Dr,Hemet,CA,92543,Riverside, ,-116.97918,33.731188,279980,-471519
740,137301,E15-59070,SDAP06486544,10/13/2015,36.87,INCON,0,0,N,18,CDFA,2,10,2015,HLB,12,63,1616 Stanley Wy,Escondido,CA,92027,San Diego, ,-117.06944,33.14697,273619,-536510
420,109991,E15-31723,VN0P06377235,7/2/2015,36.85,INCON,0,0,A,1,CDFA,2,7,2015,HLB,12,63,346 N Arizona Ave,E Los Angeles,CA,90022,Los Angeles, ,-118.16376,34.04013,169544,-440074
517,114341,E15-36091,RS0P06418385,7/22/2015,37.7,NEG,0,0,A,3,CDFA,2,7,2015,HLB,12,63,41269 Torrey Pine Ct,Hemet,CA,92544,Riverside, ,-116.940939,33.741113,283488,-470305
518,114367,E15-36117,RS0P06417268,7/22/2015,37.49,NEG,0,0,A,2,CDFA,2,7,2015,HLB,12,63,29673 Avenida de Calazada,Temecula,CA,92592,Riverside, ,-117.137798,33.503325,266046,-497227
519,114377,E15-36127,RS0P06406236,7/21/2015,38.77,NEG,0,0,A,2,CDFA,2,7,2015,HLB,12,63,21769 Mary St,Perris,CA,92570,Riverside, ,-117.282759,33.850563,251472,-459138
520,114380,E15-36130,RS0P06367909,7/22/2015,37.72,NEG,0,0,A,1,CDFA,2,7,2015,HLB,12,63,1300 W Menlo Ave  Space #66,Hemet,CA,92543,Riverside, ,-116.98462,33.758368,279380,-468523
521,114389,E15-36139,RS0P06421530,7/20/2015,37.37,NEG,0,0,A,1,CDFA,2,7,2015,HLB,12,63,4742 Lincoln Ave,Hemet,CA,92544,Riverside, ,-116.884445,33.756219,288666,-468461
522,114400,E15-36150,RS0P06418437,7/21/2015,38.86,NEG,0,0,A,11,CDFA,2,7,2015,HLB,12,63,242 Lori Ann St,San Jacinto,CA,92582,Riverside, ,-116.983493,33.785511,279389,-465511
455,111805,E15-33543,CE2P06396486,7/14/2015,36.85,INCON,0,0,N,45,CDFA, ,7,2015,HLB,12,63,1152 Prospect Ave,San Gabriel,CA,91776,Los Angeles, ,-118.104586,34.086111,174905,-434866
1002,165626,E16-00391,RS0P06513374,12/29/2015,36.85,INCON,0,0,A,17,CDFA,2,12,2015,HLB,12,63,422 Hastings St,Redlands,CA,92373,San Bernardino, ,-117.191723,34.041571,259268,-437716
525,114829,E15-36579,VN0P06442731,7/29/2015,37.36,NEG,0,0,A,1,CDFA,2,7,2015,HLB,12,63,3345 Cattaraugus Ave.,Culver City,CA,90232,Los Angeles, ,-118.38059,34.0292,149546,-441651
526,114846,E15-36596,CE2P06396390,7/29/2015,38.13,NEG,0,0,A,1,CDFA,2,7,2015,HLB,12,63,595 N Elspeth Way,Covina,CA,91722,Los Angeles, ,-117.904842,34.091251,193321,-433909
527,114862,E15-36612,CEAP06207980,7/29/2015,38.1,NEG,0,0,N,28,CDFA, ,7,2015,HLB,12,63,17870 Gallineta St,Rowland Heights,CA,91748,Los Angeles, ,-117.917843,33.979603,192394,-446317
528,114880,E15-36630,RV0P06249529,7/30/2015,38.33,NEG,0,0,A,2,CDFA, ,7,2015,ACP,12,30,"0.01 mi. N of Glen Oaks Rd., 0.26 mi. E of Camino",Temecula,CA, ,Riverside,OO586,-117.021691,33.55036,276671,-491683
529,114902,E15-36652,RV0P06250042,7/30/2015,38.1,NEG,0,0,A,1,CDFA, ,7,2015,ACP,12,30,"0.03 mi. Avenida Del Oro, 0.15 mi. E of Cll Capist",Temecula,CA, ,Riverside,OE590,-117.195293,33.49972,260715,-497787
530,114903,E15-36653,RV0P06249050,7/30/2015,37,NEG,0,0,A,1,CDFA, ,7,2015,ACP,12,30,"0.13 mi. W of Glen Ivy Rd., 0.31 mi. SW of Warm Sp",Corona,CA, ,Riverside,NM572,-117.496646,33.75939,231949,-469790
531,115143,E15-36893,AM0P06258851,7/27/2015,38.62,NEG,0,0,A,4,CDFA, ,7,2015,HLB,12,63,27703 Ortega Hwy. Sp. 42,San Juan Capistrano,CA,92675,Orange, ,-117.64831,33.51241,218579,-497525
532,115161,E15-36911,RS0P06407346,7/23/2015,38.46,NEG,0,0,A,8,CDFA,2,7,2015,HLB,12,63,18675 Sunset Knoll Dr,Riverside,CA,92504,Riverside, ,-117.347222,33.848284,245515,-459559
533,115191,E15-36941,RS0P06416744,7/27/2015,37.77,NEG,0,0,N,15,CDFA,2,7,2015,HLB,12,63,27386 Pinehurst Rd,Sun City,CA,92586,Riverside, ,-117.181804,33.697048,261319,-475881
534,115232,E15-36983,RS0P06416820,7/23/2015,38.85,NEG,0,0,N,90,CDFA,2,7,2015,HLB,12,63,42160 Ferguson Dr,Hemet,CA,92544,Riverside, ,-116.92541,33.739799,284931,-470404
535,115243,E15-36994,RS0P06421547,7/27/2015,37.87,NEG,0,0,A,35,CDFA,2,7,2015,HLB,12,63,21255 Mundo Ave,Perris,CA,92570,Riverside, ,-117.291039,33.780963,250927,-466875
1637,249631,E17-12139,RS0P06737480,5/3/2017,36.8413353,INCON,1,0,N,1,CDFA, ,5,2017,HLB,12,63,25905 Juanita St,Loma Linda,CA,92318,San Bernardino, ,-117.239071,34.051535,254865,-436739
537,115265,E15-37016,RS0P06331649,7/22/2015,38.99,NEG,0,0,A,2,CDFA,2,7,2015,HLB,12,63,1356 Whispering Wind Ln,Corona,CA,92881,Riverside, ,-117.542641,33.841994,227451,-460744
538,115362,E15-37113,RV0P06249517,7/29/2015,37.36,NEG,0,0,A,3,CDFA, ,7,2015,ACP,12,30,"0.15 mi. W of Camino Arroyo Seco, 0.25 mi. N of De",Temecula,CA, ,Riverside,OP586,-117.008695,33.54538,277896,-492197
539,115387,E15-37138,RV0P06249037,7/29/2015,37.62,NEG,0,0,A,9,CDFA, ,7,2015,ACP,12,30,"0.01 mi. N of Camino Naranjo Rd., 0.17 mi. W of Ja",Corona,CA, ,Riverside,NL571,-117.509436,33.77707,230713,-467861
540,115390,E15-37141,RV0P06249040,7/29/2015,37.08,NEG,0,0,A,6,CDFA, ,7,2015,ACP,12,30,"0.01 mi E of Jameson Rd., 0.08 mi. N of Camino Lim",Corona,CA, ,Riverside,NL571,-117.50674,33.77874,230958,-467670
541,115409,E15-37160,RS0P06407416,7/23/2015,37.49,NEG,0,0,A,2,CDFA,2,7,2015,HLB,12,63,1280 Sequoia Cir,Hemet,CA,92545,Riverside, ,-116.996015,33.726305,278438,-472110
542,115414,E15-37165,RS0P06407417,7/23/2015,38.22,NEG,0,0,A,21,CDFA,2,7,2015,HLB,12,63,1826 Ash Tree Ln,Hemet,CA,92545,Riverside, ,-116.99618,33.717632,278453,-473071
543,115416,E15-37167,RS0P06416771,7/23/2015,37.15,NEG,0,0,A,14,CDFA,2,7,2015,HLB,12,63,2657 Maple Dr,Hemet,CA,92545,Riverside, ,-116.99684,33.717805,278391,-473054
544,115439,E15-37190,RS0P06421577,7/27/2015,37.05,NEG,0,0,A,2,CDFA,2,7,2015,HLB,12,63,307 S Ramona St,Hemet,CA,92543,Riverside, ,-116.974922,33.74367,280331,-470123
545,115895,E15-37646,RS0P06421691,7/28/2015,39.73,NEG,0,0,N,0,CDFA,2,7,2015,HLB,12,63,595 S Franklin St,Hemet,CA,92543,Riverside, ,-116.966212,33.738511,281156,-470669
546,116223,E15-37976,SDAP06311904,8/5/2015,38.71,NEG,0,0,A,1,CDFA,2,8,2015,HLB,12,63,1162 Via Estrellada,Fallbrook,CA,92028,San Diego, ,-117.23038,33.39266,257801,-509745
547,116407,E15-38160,RS0P06418364,7/29/2015,38.08,NEG,0,0,A,13,CDFA,2,7,2015,HLB,12,63,5353 35th St,Jurupa Valley,CA,92509,Riverside, ,-117.398137,33.996716,240352,-443233
548,116482,E15-38235,RS0P06407382,7/29/2015,38.69,NEG,0,0,A,4,CDFA,2,7,2015,HLB,12,63,4930 Rigel Way,Mira Loma,CA,91752,Riverside, ,-117.529011,33.995047,228270,-443742
549,116772,E15-38525,VN0P06442521,8/6/2015,39.33,NEG,0,0,A,11,CDFA,2,8,2015,HLB,12,63,5016 Boyar Ave,Long Beach,CA,90807,Los Angeles, ,-118.17531,33.84816,168887,-461383
550,117002,E15-38755,RS0P06407428,8/3/2015,38.25,NEG,0,0,A,24,CDFA,2,8,2015,HLB,12,63,2621 Alicia Pl,Hemet,CA,92545,Riverside, ,-116.999389,33.766143,277985,-467704
551,117162,E15-38915,RS0P06366566,8/4/2015,39.97,NEG,0,0,A,2,CDFA,2,8,2015,HLB,12,63,6585 Geranium Pl #A,Riverside,CA,92503,Riverside, ,-117.460893,33.949611,234696,-448613
552,117166,E15-38919,RS0P06418561,8/4/2015,38.98,NEG,0,0,N,30,CDFA,2,8,2015,HLB,12,63,3380 Santa Cruz Dr,Riverside,CA,92507,Riverside, ,-117.316287,33.98148,247959,-444712
553,117176,E15-38929,RS0P06418578,8/4/2015,37.89,NEG,0,0,A,3,CDFA,2,8,2015,HLB,12,63,6890 Sundown Dr,Riverside,CA,92509,Riverside, ,-117.434458,34.002703,236980,-442661
554,117333,E15-39086,CE2P06425775,8/12/2015,37.35,NEG,0,0,A,4,CDFA, ,8,2015,HLB,12,63,317 E Grand Ave,San Gabriel,CA,91776,Los Angeles, ,-118.09643,34.09235,175643,-434159
555,117354,E15-39108,RS0P06462016,8/12/2015,38.1,NEG,0,0,N,7,CDFA,2,8,2015,HLB,12,63,418 N Angeleno Ave,Azusa,CA,91702,Los Angeles, ,-117.910096,34.12884,192745,-429750
556,117361,E15-39115,RS0P06417525,8/12/2015,38.78,NEG,0,0,N,7,CDFA,2,8,2015,HLB,12,63,1373 Scoville Ave,Pomona,CA,91767,Los Angeles, ,-117.7239,34.079178,210046,-434863
557,117366,E15-39120,RS0P06417519,8/12/2015,38.59,NEG,0,0,N,21,CDFA,2,8,2015,HLB,12,63,466 Marygrove Rd,Claremont,CA,91711,Los Angeles, ,-117.723686,34.087541,210043,-433935
558,117391,E15-39145,RS0P06417518,8/12/2015,39.16,NEG,0,0,A,1,CDFA,2,8,2015,HLB,12,63,371 Notre Dame Rd,Claremont,CA,91711,Los Angeles, ,-117.722156,34.089137,210180,-433754
